cod_localidad,id_provincia,id_departamento,observacion,categoria,subcategoria,provincia,departamento,localidad,nombre,domicilio,piso,cp,cod_tel,telefono,mail,web,informacion_adicional,latitud,longitud,tipo_latitud_longitud,fuente,fecha_fundacion,nro_conabip,anio_actualizacion
6854100,06,06854,,Biblioteca Popular,,Buenos Aires,25 De Mayo,25 de Mayo,Comité Cultural y Biblioteca Juan Francisco Ibarra,9 y 27 801,,6660,2345.0,462234.0,,,,-35.432917,-60.171417,Exacta,CONABIP,1922-10-02,938,2023
6588100,06,06588,,Biblioteca Popular,,Buenos Aires,9 De Julio,9 de Julio,Bib.Pop. Anastasio Prieto,Mitre 342,,6500,,,,,,-35.433333,-60.866667,Exacta,CONABIP,1980-01-01,200,2023
6588100,06,06588,,Biblioteca Popular,,Buenos Aires,9 De Julio,9 de Julio,Bib.Pop. José Ingenieros,Mendoza 991,,6500,2317.0,426779.0,,,,-35.445957,-60.883377,Exacta,CONABIP,1933-10-12,1850,2023
6007010,06,06007,,Biblioteca Popular,,Buenos Aires,Adolfo Alsina,Carhue,Bib.Pop. Adolfo Alsina,San Martín 1101,,B6430CSL,2936.0,430724.0,,,,-37.180933,-62.76005,Exacta,CONABIP,1912-08-23,88,2023
6007080,06,06007,,Biblioteca Popular,,Buenos Aires,Adolfo Alsina,Rivera,Bib.Pop. José Ingenieros,Los Colonizadores 235 0,,6441,2935.0,432073.0,ccibiblio@hotmail.com,,,-37.1626,-63.24705,Exacta,CONABIP,1925-01-01,1278,2023
6014010,06,06014,,Biblioteca Popular,,Buenos Aires,Adolfo Gonzalez Chaves,Adolfo Gonzalez Chaves,Bib.Pub. Bernardino Rivadavia,Sarmiento 175,,7513,2983.0,484115.0,bipobrchaves@yahoo.com.ar,,,-38.03465,-60.099433,Exacta,CONABIP,1925-05-10,1062,2023
6014020,06,06014,,Biblioteca Popular,,Buenos Aires,Adolfo Gonzalez Chaves,De la Garma,Bib.Pop. Dr. Victor H. Barrera,Castro Barros 348 0,,B7515AGH,2983.0,494240.0,barrerabp@hotmail.com,,,-37.962467,-60.414517,Exacta,CONABIP,1942-11-30,2170,2023
6021010,06,06021,,Biblioteca Popular,,Buenos Aires,Alberti,Alberti,Bib.Pop. Andrés Vaccarezza,Arias 154,,6634,2346.0,471339.0,eleana_1983@hotmail.com,,,-35.03105,-60.278333,Exacta,CONABIP,1925-01-01,1554,2023
6028010,06,06028,,Biblioteca Popular,,Buenos Aires,Almte Brown,Adrogué,Amigos de la Biblioteca Esteban Adrogué,La Rosa 974 0,,B1846CQN,11.0,42141245.0,,,,-34.797233,-58.38155,Exacta,CONABIP,1918-08-01,90,2023
6028010,06,06028,,Biblioteca Popular,,Buenos Aires,Almte Brown,Adrogué,Bib. Pop. La Margarita blanca,Gral.Paz 765,,1846,11.0,42944738.0,,,,-34.804586,-58.392516,Exacta,CONABIP,1999-08-28,4001,2023
6028010,06,06028,,Biblioteca Popular,,Buenos Aires,Almte Brown,Claypole,Bib.Pop. Mahatma Gandhi,Lobato 843,,1849,11.0,42911465.0,bpmgandhi@tutopia.com,,,-34.799917,-58.3364,Exacta,CONABIP,1980-01-01,3792,2023
6028010,06,06028,,Biblioteca Popular,,Buenos Aires,Almte Brown,Glew,Bib.Pop. Pablo Rojas Paz,A.del Valle y Mansilla 0,,1856,2224.0,420095.0,bibliorojaspaz@gmail.com,,,-34.891483,-58.38585,Exacta,CONABIP,1969-03-22,2870,2023
6028010,06,06028,,Biblioteca Popular,,Buenos Aires,Almte Brown,Glew,Bib.Pop. Manuel Belgrano del Barrio de Villa París,Scalabrini Ortíz 2560,,1856,,,bib_manuelbelgrano_glew@yahoo.com.ar,,,-34.87905,-58.3788,Exacta,CONABIP,1998-05-16,3952,2023
6028010,06,06028,,Biblioteca Popular,,Buenos Aires,Almte Brown,Glew,Bib.Pop. Fray Luis Beltrán,Fausto 233,,1856,2224.0,434784.0,neanvi@yahoo.com.ar,,,-34.894433,-58.399517,Exacta,CONABIP,2007-11-16,4260,2023
6028010,06,06028,,Biblioteca Popular,,Buenos Aires,Almte Brown,Longchamps,Bib.Pop.Soc.Fom. Martín Fierro,Chaco 1415 0,,1854,11.0,42334166.0,bibmfierro@yahoo.com.ar,,,-34.868283,-58.388433,Exacta,CONABIP,1956-03-11,2982,2023
6028010,06,06028,,Biblioteca Popular,,Buenos Aires,Almte Brown,Longchamps oeste,Bib. Pop. Atahualpa Yupanqui,Rivadavia 1516,,1854,11.0,42333211.0,atahualpa1999@gmail.com,,,-34.858633,-58.386383,Exacta,CONABIP,1999-12-10,3841,2023
6427010,06,06427,,Biblioteca Popular,,Buenos Aires,Almte Brown,Rafael Calzada,Bib.Pop. Gabriela Mistral,El Zorzal 2463,,1847,,,,,,-34.773333,-58.327183,Exacta,CONABIP,1980-01-01,3950,2023
6035010,06,06035,,Biblioteca Popular,,Buenos Aires,Avellaneda,Avellaneda,Bib.Pop. Bartolomé Mitre,Rdo.Gutierrez 1374,,1870,11.0,42050966.0,bibpopularmitre@yahoo.com.ar,,,-34.661733,-58.352267,Exacta,CONABIP,1932-03-01,2296,2023
6035010,06,06035,,Biblioteca Popular,,Buenos Aires,Avellaneda,Avellaneda,Bib.Pop. José Mármol,Paraguay 1002,,1870,11.0,42081513.0,bjmarmol@yahoo.com.ar,,,-34.6755,-58.394767,Exacta,CONABIP,1940-06-28,2543,2023
6035010,06,06035,,Biblioteca Popular,,Buenos Aires,Avellaneda,Avellaneda,Bib.Pop. Dr. Estanislao S. Zeballos,Beruti 216,,1870,11.0,42016858.0,spebpop@gmail.com,,,-34.663083,-58.368733,Exacta,CONABIP,2001-09-15,3063,2023
6035010,06,06035,,Biblioteca Popular,,Buenos Aires,Avellaneda,Avellaneda,Bib.Pop. Alfredo Palacios,Av.Rivadavia 770,,1870,11.0,42182976.0,bipopalacios@yahoo.com.ar,,,-34.669183,-58.389067,Exacta,CONABIP,1996-05-07,3561,2023
6035010,06,06035,,Biblioteca Popular,,Buenos Aires,Avellaneda,Avellaneda,Bib.Pub.Mun.Pop. de Avellaneda,Av.Mitre 366,,1870,11.0,42059555.0,bpmavellaneda@hotmail.com,,,-34.6593,-58.369033,Exacta,CONABIP,1919-12-22,3824,2023
6035010,06,06035,,Biblioteca Popular,,Buenos Aires,Avellaneda,Avellaneda,Bib.Pop. Maestro Alfredo Bravo,Dardo Rocha 179,,1870,11.0,20569660.0,bibliotecabravo@yahoo.com.ar,,,-34.666683,-58.3542,Exacta,CONABIP,1980-01-01,4136,2023
6035010,06,06035,,Biblioteca Popular,,Buenos Aires,Avellaneda,Dock Sud,Bib.Pop. Dock Sud,Nicolás Avellaneda 1345,,1871,11.0,42014848.0,bibliotecapopulardocksud@gmail.com,,,-34.65,-58.3477,Exacta,CONABIP,1998-04-24,3908,2023
6035010,06,06035,,Biblioteca Popular,,Buenos Aires,Avellaneda,Gerli,Bib.Pop. Juan Bautista Alberdi,Limay 1234,,1870,11.0,42042651.0,punkyflores69@hotmail.com,,,-34.678183,-58.373667,Exacta,CONABIP,1918-10-10,252,2023
6035010,06,06035,,Biblioteca Popular,,Buenos Aires,Avellaneda,Gerli,Bib.Pop. Enrique del Valle Iberlucea,De la Serna 710,,1869,11.0,42057717.0,,,,-34.6827,-58.375567,Exacta,CONABIP,2002-06-02,4086,2023
6035010,06,06035,,Biblioteca Popular,,Buenos Aires,Avellaneda,Piñeyro,Bib.Pop. Veladas de estudio después del trabajo,Entre Ríos 731 0,,1870,11.0,42283687.0,,,,-34.671917,-58.390983,Exacta,CONABIP,1921-10-28,217,2023
6035010,06,06035,,Biblioteca Popular,,Buenos Aires,Avellaneda,Piñeyro,Bib.Pop. Presidente Avellaneda,Villegas 15,,1870,11.0,42220557.0,bibliotecapopularpteavellaneda@yahoo.com.ar,,,-34.666583,-58.378633,Exacta,CONABIP,1987-07-24,3719,2023
6035010,06,06035,,Biblioteca Popular,,Buenos Aires,Avellaneda,Sarandí,Soc. Fom. y Cul. y Bib.Pop. Domingo Faustino Sarmiento,Supisiche 680,,1872,,,bsfsarmiento1925@yahoo.com.ar,,,-34.684383,-58.352533,Exacta,CONABIP,1980-01-01,4192,2023
6035010,06,06035,,Biblioteca Popular,,Buenos Aires,Avellaneda,Villa Dominico,Soc.Fom. U. de Dom. y Bib.Pop. Nicolás Avellaneda,San Vicente 660,,1874,11.0,42273449.0,bnicolasavellaneda@yahoo.com.ar,,,-34.69025,-58.32075,Exacta,CONABIP,1985-09-13,3051,2023
6035010,06,06035,,Biblioteca Popular,,Buenos Aires,Avellaneda,Wilde,Bib.Pop. Juan M. de Pueyrredón,Martín Fierro 250,,1875,11.0,21941598.0,,,,-34.700717,-58.31605,Exacta,CONABIP,1922-05-14,911,2023
6035010,06,06035,,Biblioteca Popular,,Buenos Aires,Avellaneda,Wilde,Bib. Pop. Oscar Smith,Hilario Ascasubi 511,,1875,11.0,42065982.0,bibliotecapopularoscarsmith@yahoo.com,,,-34.715733,-58.323983,Exacta,CONABIP,2008-07-09,4265,2023
6042010,06,06042,,Biblioteca Popular,,Buenos Aires,Ayacucho,Ayacucho,Bib.Pub.Mun. Manuel Vilardaga,25 de Mayo 941,,7150,2296.0,453285.0,,,,-37.151133,-58.485517,Exacta,CONABIP,,3193,2023
6049020,06,06049,,Biblioteca Popular,,Buenos Aires,Azul,Azul,Bib.Pop. Bartolomé J. Ronco,Burgos 687 0,,B7300GEM,2281.0,424409.0,info@bibliotecaronco.com.ar,,,-36.78765,-59.874633,Exacta,CONABIP,,83,2023
6049030,06,06049,,Biblioteca Popular,,Buenos Aires,Azul,Cachari,Bib.Pop. Almafuerte,25 de Mayo 1664,,B7214ABH,2281.0,481217.0,,,,-36.380017,-59.4998,Exacta,CONABIP,1918-05-26,111,2023
6049040,06,06049,,Biblioteca Popular,,Buenos Aires,Azul,Chillar,Bib.Pop. Asoc.Cult. de Chillar,Mario T. Cortázar 1037,,7311,2281.0,497325.0,bibliochillar@yahoo.com.ar,,,-37.313133,-59.981967,Exacta,CONABIP,1939-01-06,2068,2023
6056010,06,06056,,Biblioteca Popular,,Buenos Aires,Bahia Blanca,Bahía Blanca,Bib.Pop. Bernardino Rivadavia,Av. Colón 31,,B8000FTA,291.0,4554055.0,abrbp@abrbp.org.ar,,,-38.71885,-62.267083,Exacta,CONABIP,,100,2023
6056010,06,06056,,Biblioteca Popular,,Buenos Aires,Bahia Blanca,Bahía Blanca,Bib.Pop. Bartolomé Mitre,Washington 232,,B8001GZF,291.0,4819856.0,bibliotecabmitre@yahoo.com.ar,,,-38.729717,-62.245483,Exacta,CONABIP,1922-04-10,1663,2023
6056010,06,06056,,Biblioteca Popular,,Buenos Aires,Bahia Blanca,Bahía Blanca,Bib.Pop. Roberto Payro,19 de Mayo 769,,8000,291.0,4530057.0,,,,-38.707633,-62.25955,Exacta,CONABIP,1960-09-27,2790,2023
6056010,06,06056,,Biblioteca Popular,,Buenos Aires,Bahia Blanca,Bahía Blanca,Bib.Pop. Pajarita de papel,Saavedra 951,,B8000DDS,2914.0,518585.0,,,,-38.728917,-62.2587,Exacta,CONABIP,1980-01-01,3392,2023
6056010,06,06056,,Biblioteca Popular,,Buenos Aires,Bahia Blanca,Bahía Blanca,Bib.Pop. Eduardo Mallea,Avda. Gral. Arias 2250,,8103,11.0,4513992.0,bibliotecamallea@yahoo.com.ar,,,-38.75505,-62.263367,Exacta,CONABIP,1980-01-01,3587,2023
6056010,06,06056,,Biblioteca Popular,,Buenos Aires,Bahia Blanca,Bahía Blanca,Bib.Pop. Don Germán García,Quillén 146,,8000,291.0,4860236.0,bpggbb@yahoo.com.ar,,,-38.697583,-62.219617,Exacta,CONABIP,1996-11-20,3795,2023
6056010,06,06056,,Biblioteca Popular,,Buenos Aires,Bahia Blanca,Bahía Blanca,Bib.Pop. Rosario Sur,Cornelio Saavedra 2395,,8000,291.0,4813199.0,biblioteca_rosariosur@yahoo.com.ar,,,-38.7413,-62.242883,Exacta,CONABIP,2000-09-16,3929,2023
6056010,06,06056,,Biblioteca Popular,,Buenos Aires,Bahia Blanca,Bahía Blanca,Bib. Pop. Gabriela Mistral,Francia 2120,,8000,291.0,5172268.0,bibpopgabmistral@yahoo.com.ar,,,-38.72115,-62.31115,Exacta,CONABIP,1996-04-13,4022,2023
6056010,06,06056,,Biblioteca Popular,,Buenos Aires,Bahia Blanca,Bahía Blanca,Bib.Pop. Simón Rodriguez,Vieytes 2745,,8000,2914.0,86201.0,simonrodriguezbiblioteca@gmail.com,,,-38.697617,-62.29875,Exacta,CONABIP,1980-01-01,4137,2023
6056010,06,06056,,Biblioteca Popular,,Buenos Aires,Bahia Blanca,Bahía Blanca,Bib. Pop. Villa Duprat,Arcada 628,,8000,2914.0,881915.0,biblioduprat@gmail.com,,,-38.689,-62.299733,Exacta,CONABIP,1980-01-01,4155,2023
6056010,06,06056,,Biblioteca Popular,,Buenos Aires,Bahia Blanca,Bahía Blanca,BIb. Pop. Martín Allica,Humboldt 3758,,8000,2914.0,821769.0,bibliotecamartinallica@yahoo.com.ar,,,-38.7397,-62.212633,Exacta,CONABIP,2006-04-24,4256,2023
6056020,06,06056,,Biblioteca Popular,,Buenos Aires,Bahia Blanca,Cabildo,Bib.Pop. Mariano Moreno,Azcuenaga 184,,8118,291.0,4918158.0,,,,-38.48425,-61.892683,Exacta,CONABIP,1963-06-01,2871,2023
6056030,06,06056,,Biblioteca Popular,,Buenos Aires,Bahia Blanca,General Daniel Cerri,Asoc. José Hernández,Matheu 232,,8105,291.0,154751051.0,,,,-38.719283,-62.394433,Exacta,CONABIP,1966-11-10,2841,2023
6056010,06,06056,,Biblioteca Popular,,Buenos Aires,Bahia Blanca,Ingeniero White,Bib.Pop. Mariano Moreno,Mascarello 3860,,8103,291.0,4573358.0,bibliomarianomorenoiw@gmail.com,,,-38.782517,-62.266383,Exacta,CONABIP,1925-08-24,1465,2023
6056010,06,06056,,Biblioteca Popular,,Buenos Aires,Bahia Blanca,Villa Harding Green,Bib.Pop. Ing. Domingo Pronsato,Salinas Chicas 4179,,8101,291.0,4861652.0,bibliotecapronsato@yahoo.com.ar,,,-38.714211,-62.189106,Exacta,CONABIP,1989-12-29,3132,2023
6063010,06,06063,,Biblioteca Popular,,Buenos Aires,Balcarce,Balcarce,Bib.Pub. Pablo A. Pizzurno,15 707,,B7620BDO,2266.0,430191.0,bibliotecapizzurno@yahoo.com.ar,,,-37.845683,-58.25435,Exacta,CONABIP,1923-12-01,1021,2023
6070010,06,06070,,Biblioteca Popular,,Buenos Aires,Baradero,Baradero,Bib.Pop.Mun. Fray Luis de Bolaños,Rodriguez y Thames,,B2942DGT,3329.0,485232.0,,,,-33.8047,-59.5052,Exacta,CONABIP,,1469,2023
6070010,06,06070,,Biblioteca Popular,,Buenos Aires,Baradero,Baradero,Bib.Pop. José Manuel Estrada,San Martín 857,,2942,3329.0,480167.0,,,,-33.805867,-59.502033,Exacta,CONABIP,1919-10-05,2159,2023
6070010,06,06070,,Biblioteca Popular,,Buenos Aires,Baradero,Baradero,Bib.Pop. Mario Bravo,Araoz 1363,,2942,329.0,484972.0,,,,-33.8099,-59.506733,Exacta,CONABIP,1980-01-01,3718,2023
6077010,06,06077,,Biblioteca Popular,,Buenos Aires,Bartolome Mitre,Arrecifes,Bib.Pop.Mun. Teniente Gral. Bme. Mitre,Av.C. Merlassino e Int. R.Lorenzo 0,,2740,2478.0,451326.0,bibmitre@yahoo.com.ar,,,-34.063183,-60.108267,Exacta,CONABIP,1939-04-22,2688,2023
6084020,06,06084,,Biblioteca Popular,,Buenos Aires,Benito Juarez,Benito Juarez,Bib.Pop. Juan J. Bernal Torres,Av.Libertad 101,,B7020CXB,2292.0,451200.0,bipopbernaltorres@gmail.com,,,-37.671854,-59.806423,Exacta,CONABIP,1946-12-26,2723,2023
6091010,06,06091,,Biblioteca Popular,,Buenos Aires,Berazategui,Berazategui,Bib.Pop. Manuel Belgrano,L. de La Torre 1736 0,,1884,11.0,42166914.0,bpmbelgrano@hotmail.com,,,-34.76475,-58.206683,Exacta,CONABIP,1924-08-04,1280,2023
6091010,06,06091,,Biblioteca Popular,,Buenos Aires,Berazategui,Hudson,Bib.Pop. Padre Carlos Mugica,Lisandro de La Torre 5700,,B1885GYL,11.0,42152153.0,bibliotecapadremugica@hotmail.com,,,-34.758283,-58.221217,Exacta,CONABIP,1986-11-04,3046,2023
6091010,06,06091,,Biblioteca Popular,,Buenos Aires,Berazategui,Juan M. Gutierrez,Bib.Pop. Juan María Gutierrez,Calle 455 1545,,1890,222.0,9442649.0,bibliotecapopularjmgutierrez@hotmail.com,,,-34.827833,-58.188017,Exacta,CONABIP,2002-09-21,4075,2023
6091010,06,06091,,Biblioteca Popular,,Buenos Aires,Berazategui,Plátanos,Bib.Pop. José Ingenieros,Calle 157 4380,,1885,11.0,42152731.0,bibliotecadeplatanos@yahoo.com.ar,,,-34.784083,-58.174867,Exacta,CONABIP,1984-05-12,3033,2023
6091010,06,06091,,Biblioteca Popular,,Buenos Aires,Berazategui,Ranelagh,Bib.Pop. y Cent. Victoria Ocampo,Calle 364 433,,1886,11.0,42580922.0,ranelaghbibliocampo@yahoo.com.ar,,,-34.7868,-58.205967,Exacta,CONABIP,1980-01-01,4169,2023
6098010,06,06098,,Biblioteca Popular,,Buenos Aires,Berisso,Berisso,Bib.Pop. Pestalozzi,Calle 8 4078,,1923,2214.0,613298.0,bibliopopularpestalozzi@gmail.com,,,-34.871517,-57.8891,Exacta,CONABIP,1935-07-09,1864,2023
6098010,06,06098,,Biblioteca Popular,,Buenos Aires,Berisso,Berisso,Bib. Pop. Mariano Moreno,13 4437,,B1923BGU,221.0,4611658.0,,,,-34.870917,-57.881117,Exacta,CONABIP,1944-06-11,2082,2023
6098010,06,06098,,Biblioteca Popular,,Buenos Aires,Berisso,Berisso,Bib.Pop. Ricardo Güiraldes,Calle 14 (H.Yrigóyen e/153 y 154 0,,1923,221.0,4645714.0,bibliotecaguiraldes@yahoo.com.ar,,,-34.88415,-57.890283,Exacta,CONABIP,1949-02-02,2473,2023
6098010,06,06098,,Biblioteca Popular,,Buenos Aires,Berisso,Berisso,Bib.Pop. Almafuerte,8 3465,,1923,221.0,6459463.0,,,,-34.8778,-57.894233,Exacta,CONABIP,1943-06-06,2490,2023
6098010,06,06098,,Biblioteca Popular,,Buenos Aires,Berisso,Berisso,Bib.Pop. Mariano Moreno,Montevideo,,1923,221.0,4614848.0,,,,-34.898167,-57.809029,Exacta,CONABIP,1980-01-01,2492,2023
6098010,06,06098,,Biblioteca Popular,,Buenos Aires,Berisso,Berisso,Bib.Pop. Presbítero Pascual Ruberto,Calle (Norte) e/29 y 30 162,,B1923GYH,221.0,4643858.0,pascualruberto@hotmail.com,,,-34.884283,-57.867383,Exacta,CONABIP,1995-06-10,3692,2023
6098010,06,06098,,Biblioteca Popular,,Buenos Aires,Berisso,Villa B. Constructor,Bib.Pop. Belisario Roldán,15 4211,,1923,221.0,4611872.0,,,,-34.890739,-57.860718,Exacta,CONABIP,1947-06-20,2318,2023
6105060,06,06105,,Biblioteca Popular,,Buenos Aires,Bolivar,Bolívar,Bib.Pop. Bernardino Rivadavia,Las Heras 80 0,,B6550BGB,2314.0,420626.0,bib_rivadavia@yahoo.com.ar,,,-36.232083,-61.113533,Exacta,CONABIP,1911-12-15,93,2023
6105060,06,06105,,Biblioteca Popular,,Buenos Aires,Bolivar,Bolívar,Bib.Pop. D.F.Sarmiento,Av.San Martín 1065 0,,6550,2314.0,426967.0,cultural_07@yahoo.com.ar,,,-36.227783,-61.117417,Exacta,CONABIP,1926-05-26,1478,2023
6105060,06,06105,,Biblioteca Popular,,Buenos Aires,Bolivar,Bolívar,Bib.Pop. María Alcira Cabrera,Falucho 780,,B6550AZP,2314.0,426274.0,,,,-36.225283,-61.109183,Exacta,CONABIP,1972-07-08,3801,2023
6105070,06,06105,,Biblioteca Popular,,Buenos Aires,Bolivar,Urdampilleta,Bib.Pop. D.F.Sarmiento,Carlos Pellegrini 345 0,,6553,2314.0,491137.0,bpurdampilleta@yahoo.com.ar,,,-36.432117,-61.4216,Exacta,CONABIP,1933-07-21,1769,2023
6112010,06,06112,,Biblioteca Popular,,Buenos Aires,Bragado,Bragado,Bib.Pop. Manuel Belgrano,Pellegrini 1364,,6640,2342.0,426409.0,bbelgrano@yahoo.com.ar,,,-35.1154,-60.4897,Exacta,CONABIP,1943-12-03,2191,2023
6112020,06,06112,,Biblioteca Popular,,Buenos Aires,Bragado,Comodoro Py,Bib.Pop. Florencio López,Esteban Rodriguez y Aberro 0,,6641,,,,,,-35.32195,-60.521367,Exacta,CONABIP,1997-07-31,3749,2023
6112030,06,06112,,Biblioteca Popular,,Buenos Aires,Bragado,General O'Brien,Bib.Pop. Bernardino Rivadavia,Av.Gral.O`Brien y Chacabuco s/n,,6646,2342.0,498010.0,,,,-34.907117,-60.760117,Exacta,CONABIP,1926-05-01,1857,2023
6021030,06,06021,,Biblioteca Popular,,Buenos Aires,Bragado,Mechita,Bib.Pop. José Ingenieros,Av.Quintana 2009,,6648,2342.0,493505.0,bpjimechita@live.com.ar,,,-35.074867,-60.421233,Exacta,CONABIP,1940-06-01,2135,2023
6112090,06,06112,,Biblioteca Popular,,Buenos Aires,Bragado,Warnes,Bib.Pop. José Ignacio Warnes,"Santa Fe s/n, ex Estación Ferrocarril 0",,6646,2342.0,492090.0,bpjiwarnes@yahoo.com.ar,,,-34.910583,-60.537683,Exacta,CONABIP,1980-01-01,4142,2023
6119050,06,06119,,Biblioteca Popular,,Buenos Aires,Brandsen,Coronel Brandsen,Bib.Pop. José de San Martín,Av.Mitre 251,,B1980AEC,2223.0,15509588.0,,,,-35.168483,-58.236983,Exacta,CONABIP,1932-05-25,1676,2023
6119050,06,06119,,Biblioteca Popular,,Buenos Aires,Brandsen,Coronel Brandsen,Bib.Pop. Dr. Frutos Enrique Ortiz,Larrea 3077,,1980,2223.0,432156.0,gallardosandra@hotmail.com,,,-35.158767,-58.238933,Exacta,CONABIP,1980-01-01,4166,2023
6119070,06,06119,,Biblioteca Popular,,Buenos Aires,Brandsen,Jeppener,Bib.Pop. Jeppener,Aldo Sequenza esq. Delaplace,,1986,2223.0,498618.0,,,,-35.27795,-58.20295,Exacta,CONABIP,2002-03-22,4024,2023
6126030,06,06126,,Biblioteca Popular,,Buenos Aires,Campana,Campana,Bib. Pop. Pilar A. de Traverso,Coltelli 1624,,2804,3489.0,441441.0,bibliotecatraverso@yahoo.com.ar,,,-34.1689,-58.959617,Exacta,CONABIP,1992-09-08,3468,2023
6134030,06,06134,,Biblioteca Popular,,Buenos Aires,Cañuelas,Cañuelas,Bib.Pop. D.F.Sarmiento,Lara 904 0,,1814,2226.0,421728.0,bibliotecapopulardfsarmiento@hotmail.com,,,-35.053717,-58.762883,Exacta,CONABIP,1927-07-01,1266,2023
6134030,06,06134,,Biblioteca Popular,,Buenos Aires,Cañuelas,Cañuelas,Bib.Pop. Barrio San Esteban,Aromo 63,,1814,,,sanestebanbibliotecapopular@yahoo.com.ar <SANESTEBANBIBLIOTECAPOPULAR@YAHOO.COM.AR>,,,-35.037087,-58.741207,Exacta,CONABIP,1980-01-01,3900,2023
6140010,06,06140,,Biblioteca Popular,,Buenos Aires,Cap Sarmiento,Capitán Sarmiento,Bib.Pop. Almafuerte,Av.Pte.Perón 467,,2752,2478.0,482271.0,bpalmafuerte@hotmail.com,,,-34.1775,-59.7907,Exacta,CONABIP,1923-05-21,1002,2023
6147030,06,06147,,Biblioteca Popular,,Buenos Aires,Carlos Casares,Carlos Casares,Bib.Pop. José Ingenieros,Maya 503,,6530,2395.0,452887.0,biblioingenieros@gmail.com,,,-35.618033,-61.364067,Exacta,CONABIP,1963-09-07,2861,2023
6147030,06,06147,,Biblioteca Popular,,Buenos Aires,Carlos Casares,Carlos Casares,Bib.Pop. El Libro Alegre,Avda. Pte Juan D. Perón 100,,6530,2395.0,15412698.0,biblioellibroalegre@hotmail.com.ar,,,-35.622267,-61.365933,Exacta,CONABIP,2009-02-28,4289,2023
6147100,06,06147,,Biblioteca Popular,,Buenos Aires,Carlos Casares,Smith,Bib.Pop.Esc. Dr. Enrique Smith,Fornero y Smith,,6531,2395.0,492059.0,,,,-35.495217,-61.593633,Exacta,CONABIP,1984-12-01,3045,2023
6154010,06,06154,,Biblioteca Popular,,Buenos Aires,Carlos Tejedor,Carlos Tejedor,Bib.Pop. Roque Saénz Peña,Alberto H.Almirón 148,,B6455ADD,2357.0,420574.0,bibliotejedor@yahoo.com.ar,,,-35.392067,-62.420533,Exacta,CONABIP,1916-10-28,268,2023
6154050,06,06154,,Biblioteca Popular,,Buenos Aires,Carlos Tejedor,Tres Algarrobos,Bib.Pop. Bernardino Rivadavia,25 de Mayo 420,,B6231ABJ,3388.0,492857.0,sanjose@servicoopsa.com.ar,,,-35.196633,-62.773567,Exacta,CONABIP,1920-09-26,258,2023
6161010,06,06161,,Biblioteca Popular,,Buenos Aires,Carmen De Areco,Carmen de Areco,Bib.Pop. Juan Bautista Alberdi,Rivadavia 586,,B6725BNP,2273.0,440522.0,bibliocada@yahoo.com.ar,,,-34.378083,-59.8214,Exacta,CONABIP,1914-09-08,270,2023
6168010,06,06168,,Biblioteca Popular,,Buenos Aires,Castelli,Castelli,Bib.Pop. Juan José Castelli,Falucho 155,,7114,2245.0,480958.0,biblicast@yahoo.com.ar,,,-36.088517,-57.803333,Exacta,CONABIP,1940-04-24,2264,2023
6210020,06,06210,,Biblioteca Popular,,Buenos Aires,Chacabuco,Chacabuco,Bib.Pop. D.F.Sarmiento,San Martín 38,,6470,352.0,27094.0,,,,-34.64215,-60.470367,Exacta,CONABIP,1907-01-01,1381,2023
6210050,06,06210,,Biblioteca Popular,,Buenos Aires,Chacabuco,Rawson,Bib.Pop. Guillermo Rawson,25 de Mayo s/n,,6734,2352.0,491747.0,,,,-34.60505,-60.066883,Exacta,CONABIP,1920-01-01,222,2023
6217010,06,06217,,Biblioteca Popular,,Buenos Aires,Chascomus,Chascomús,Bib.Pop. D.F.Sarmiento,Alvear 9,,B7130AFA,2241.0,423403.0,bpsarmiento113@yahoo.com.ar,,,-35.577367,-58.01245,Exacta,CONABIP,,113,2023
6217010,06,06217,,Biblioteca Popular,,Buenos Aires,Chascomus,Chascomús,Bib.Pop.Soc.Fom. Nuestra Señora de Luján,H.Yrigóyen 578 0,,7130,2241.0,436683.0,biblovillalujan@hotmail.com,,,-35.5659,-58.010717,Exacta,CONABIP,1982-09-25,3038,2023
6217010,06,06217,,Biblioteca Popular,,Buenos Aires,Chascomus,Chascomús,Bib.Pub. San José Obrero,Florencio Chappa 625,,7130,2241.0,423244.0,biblioteka_jso@yahoo.com,,,-35.563967,-58.002483,Exacta,CONABIP,1986-02-13,3189,2023
6217010,06,06217,,Biblioteca Popular,,Buenos Aires,Chascomus,Chascomús,Bib.Pop. Ambulante y Rural de Chascomus,Neuquén E Hipólito Yrigóyen 0,,7130,2241.0,423536.0,labiblioamb@hotmail.com,,,-35.559283,-58.012767,Exacta,CONABIP,1994-10-07,3631,2023
6217010,06,06217,,Biblioteca Popular,,Buenos Aires,Chascomus,Chascomús,Bib.Pop. del Ipora Padre Luis Sánchez,Inmigrantes Arabes 569,,7130,2241.0,430763.0,bibliotecaipora2000@yahoo.com.ar,,,-35.568083,-57.996183,Exacta,CONABIP,1997-02-22,3890,2023
6224010,06,06224,,Biblioteca Popular,,Buenos Aires,Chivilcoy,Chivilcoy,Bib.Pop. Dr. Antonio Novaro,Moreno 30,,B6620KFB,2346.0,422078.0,bibliotecanovaro@hotmail.com,,,-34.896533,-60.017683,Exacta,CONABIP,,105,2023
6182030,06,06182,,Biblioteca Popular,,Buenos Aires,Cnel De Marina L Rosales,Punta Alta,Bib.Pop. Esc. Ing. Luis Luiggi,Mitre 886,,8109,2932.0,432645.0,,,,-38.877767,-62.070567,Exacta,CONABIP,1994-09-23,3571,2023
6182030,06,06182,,Biblioteca Popular,,Buenos Aires,Cnel De Marina L Rosales,Punta Alta,Bib.Pop. Puntaltense Mercedes de San Martín,9 de julio 1051,,8109,,,bibliomercedesdesanmartin@gmail.com,,,-38.872267,-62.069567,Exacta,CONABIP,2002-07-19,4334,2023
6189030,06,06189,,Biblioteca Popular,,Buenos Aires,Cnel Dorrego,Coronel Dorrego,Bib.Pop. Coronel Dorrego,Av.Ricardo Fuertes 674,,8150,2921.0,452726.0,,,,-38.719633,-61.288733,Exacta,CONABIP,1928-05-24,1312,2023
6189040,06,06189,,Biblioteca Popular,,Buenos Aires,Cnel Dorrego,El Perdido,Bib.Pop. de José A. Guisasola,Av.Raúl Loydi s/n 0,,8156,2921.0,492011.0,biblioelperdido@gmail.com,,,-38.674383,-61.09165,Exacta,CONABIP,1982-03-01,3483,2023
6189070,06,06189,,Biblioteca Popular,,Buenos Aires,Cnel Dorrego,Oriente,Bib.Pop. Florentino Ameghino,Sarmiento 568,,B7509AUL,2983.0,495361.0,biblioameghino@altisa.com.ar,,,-38.74493,-60.609467,Exacta,CONABIP,1928-12-05,1347,2023
6196010,06,06196,,Biblioteca Popular,,Buenos Aires,Cnel Pringles,Coronel Pringles,Bib.Pop. Pringles,San Martín 675,,7530,2922.0,462345.0,,,,-37.98515,-61.353783,Exacta,CONABIP,1932-07-10,2225,2023
6203020,06,06203,,Biblioteca Popular,,Buenos Aires,Cnel Suarez,Coronel Suarez,Bib.Pop. D.F.Sarmiento,Sarmiento 349,,B7540DZG,2926.0,423287.0,bibliotecasarmiento_2000@yahoo.com.ar,,,-37.456583,-61.934033,Exacta,CONABIP,1915-01-31,101,2023
6203020,06,06203,,Biblioteca Popular,,Buenos Aires,Cnel Suarez,Coronel Suarez,Bib.  Infantil de Coronel Suarez,Las Heras 843,,7540,2926.0,431274.0,glabuscfliawach@gmail.com,,,-37.455467,-61.930083,Exacta,CONABIP,1991-01-31,3591,2023
6203050,06,06203,,Biblioteca Popular,,Buenos Aires,Cnel Suarez,Huanguelen,Asoc.Bib.Pop.Púb.Esc. Dr. Baldomero Fernández Moreno,Avda. Sarmiento 851,,7545,2933.0,432936.0,bibliotecapopularhuanguelen@gmail.com,,,-37.066017,-61.92365,Exacta,CONABIP,1969-09-27,3894,2023
6175010,06,06175,,Biblioteca Popular,,Buenos Aires,Colon,Colón,Bib.Pop. Mariano Moreno,Calle 46 Nº  1027 0,,2720,2473.0,430544.0,,,,-33.890533,-61.099033,Exacta,CONABIP,1920-04-24,1883,2023
6182030,06,06182,,Biblioteca Popular,,Buenos Aires,Coronel Rosales,Punta alta,Bib.Pop. Juan Bautista Alberdi,Rivadavia 353,,8109,2932.0,421682.0,bibjbalberdi@gmail.com,,,-38.88035,-62.078167,Exacta,CONABIP,1933-02-19,1770,2023
6182030,06,06182,,Biblioteca Popular,,Buenos Aires,Coronel Rosales,Punta alta,Bib.Pop. Dr. Ricardo Gutierrez,Passo 702,,8109,2932.0,422854.0,nancy_flo@hotmail.com,,,-38.877733,-62.078367,Exacta,CONABIP,1980-01-01,3364,2023
6238010,06,06238,,Biblioteca Popular,,Buenos Aires,Dolores,Dolores,Bib.Pop. Gral. San Martín,Bartolomé Mitre 60,,B7100BNB,2245.0,446253.0,,,,-36.311033,-57.678567,Exacta,CONABIP,1945-10-27,118,2023
6245010,06,06245,,Biblioteca Popular,,Buenos Aires,Ensenada,Ensenada,Bib.Pop. Mariano Moreno,Calle 48 Bis esq.126,,1925,11.0,42493631.0,,,,-34.89765,-57.932683,Exacta,CONABIP,1917-07-22,167,2023
6245010,06,06245,,Biblioteca Popular,,Buenos Aires,Ensenada,Ensenada,Bib.Pop. Gral. José de San Martín,San Martín 715,,1925,221.0,4691056.0,,,,-34.85535,-57.9127,Exacta,CONABIP,1932-06-18,1620,2023
6245010,06,06245,,Biblioteca Popular,,Buenos Aires,Ensenada,Ensenada,Bib.Pop.Pub. Bartolomé Mitre,Alberdi esq.La Merced,,1925,221.0,4691333.0,,,,-34.861167,-57.901967,Exacta,CONABIP,1924-11-18,2151,2023
6245010,06,06245,,Biblioteca Popular,,Buenos Aires,Ensenada,Ensenada,Bib.Pub.Pop.Mun. B. Fernández Moreno,Horacio Cestino 379,,1925,221.0,4692559.0,,,,-34.8631,-57.90065,Exacta,CONABIP,1957-04-02,3647,2023
6245010,06,06245,,Biblioteca Popular,,Buenos Aires,Ensenada,Punta Lara,Bib.Pop. Osvaldo H. Merlo,Calle 19 esq.5 0,,1931,221.0,4662266.0,anamzanoni@yahoo.com.ar,,,-34.80621,-57.986637,Exacta,CONABIP,1980-01-01,4065,2023
6252010,06,06252,,Biblioteca Popular,,Buenos Aires,Escobar,Belén de Escobar,Bib.Pop. Bernardino Rivadavia,H.Yrigoyen 514,,1625,348.0,4424338.0,bp20dediciembre@gmail.com,,,-34.388017,-58.831983,Exacta,CONABIP,1932-09-25,1673,2023
6252010,06,06252,,Biblioteca Popular,,Buenos Aires,Escobar,Garín,Bib.Pop. Juan Bautista Alberdi,Presidente Perón 225,,1619,3484.0,473359.0,alberdibiblio@yahoo.com.ar,,,-34.42065,-58.733183,Exacta,CONABIP,1929-07-09,861,2023
6260010,06,06260,,Biblioteca Popular,,Buenos Aires,Esteban Echeverria,Luis Guillón,Bib.Pop. Florentino Ameghino,Ameghino 1640,,1838,11.0,42816384.0,bibliotecaameghino@gmail.com,,,-34.806417,-58.447,Exacta,CONABIP,1964-05-24,2843,2023
6260010,06,06260,,Biblioteca Popular,,Buenos Aires,Esteban Echeverria,Monte Grande,Bib.Pop. Bernardino Rivadavia,Rojas 167,,1842,11.0,42901828.0,,,,-34.817367,-58.470467,Exacta,CONABIP,1932-09-01,1733,2023
6260010,06,06260,,Biblioteca Popular,,Buenos Aires,Esteban Echeverria,Monte Grande,Biblioteca Popular El Principito,Córdoba 337,,1842,11.0,42819589.0,,,,-34.826183,-58.451317,Exacta,CONABIP,1980-01-01,3452,2023
6270010,06,06270,,Biblioteca Popular,,Buenos Aires,Ezeiza,La Unión,Soc. de Fom. y Bib. Pop. del Bo. Parque El Trébol,Los Alamos s/n 0,,1804,0.0,0.0,bibliotecaeltrebol@gmail.com,,,-34.882231,-58.5442,Exacta,CONABIP,1993-11-06,4357,2023
6270010,06,06270,,Biblioteca Popular,,Buenos Aires,Ezeiza,Tristán Suarez,Bib.Pop. D.F.Sarmiento,Marotto 361,,1806,11.0,42348365.0,bpdfsts@yahoo.com.ar,,,-34.8937,-58.569467,Exacta,CONABIP,1959-08-09,2810,2023
6274010,06,06274,,Biblioteca Popular,,Buenos Aires,Florencio Varela,Bosques,Bib. Pop. Lisandro de la Torre,Cabrera 810,,1889,11.0,42211346.0,,,,-34.814267,-58.2225,Exacta,CONABIP,1995-08-19,3522,2023
6274010,06,06274,,Biblioteca Popular,,Buenos Aires,Florencio Varela,Florencio Varela,Bib.Pop. Del Centro Cult. Sarmiento,Boccuzzi 97 0,,1888,11.0,42556621.0,bibliotecasarmiento_varela@yahoo.com.ar,,,-34.810017,-58.276183,Exacta,CONABIP,1920-07-04,123,2023
6274010,06,06274,,Biblioteca Popular,,Buenos Aires,Florencio Varela,Florencio Varela,Bib.Pop. Almafuerte,Dr. Gristein 2977,,1888,11.0,42376299.0,almafuertebib@yahoo.com.ar,,,-34.805283,-58.2606,Exacta,CONABIP,1985-03-31,3158,2023
6274010,06,06274,,Biblioteca Popular,,Buenos Aires,Florencio Varela,Florencio Varela,Bib.Pop. Guillermo Enrique Hudson,Boccuzzi 623,,1888,11.0,42551949.0,arravera@hotmail.com,,,-34.809617,-58.267917,Exacta,CONABIP,1980-01-01,3499,2023
6274010,06,06274,,Biblioteca Popular,,Buenos Aires,Florencio Varela,Florencio Varela,Bib. Pop. Dr. Florencio Varela,Zapiola 273,,1888,11.0,43550446.0,,,,-34.816483,-58.273,Exacta,CONABIP,1999-08-30,3891,2023
6274010,06,06274,,Biblioteca Popular,,Buenos Aires,Florencio Varela,Florencio Varela,Bib.Pop. Hugo del Carril,Calle 556 699,,1888,,,bibliotecahugodelcarril@gmail.com,,,-34.81655,-58.29615,Exacta,CONABIP,1980-01-01,3926,2023
6274010,06,06274,,Biblioteca Popular,,Buenos Aires,Florencio Varela,Florencio Varela,Bib.Pop. Santo Tomás de Aquino,Bogotá 4374,,1888,11.0,42753321.0,bibliostomas@yahoo.com.ar,,,-34.800367,-58.243567,Exacta,CONABIP,1980-01-01,4051,2023
6274010,06,06274,,Biblioteca Popular,,Buenos Aires,Florencio Varela,Florencio Varela,Asoc. Cult. y Bib. Pop. Dr. Ernesto de Muro,Remedios de Escalada 1335,,1888,11.0,1557012770.0,bpdemuro@live.com.ar,,,-34.791607,-58.256245,Exacta,CONABIP,2004-05-18,4242,2023
6274010,06,06274,,Biblioteca Popular,,Buenos Aires,Florencio Varela,Villa San Luis,Cen. Cult.  y Bib.Pop. Poetisa Alfonsina Storni,Calle 1336 esq. 1319 1319,,1888,11.0,42740822.0,,,,-34.86825,-58.27375,Exacta,CONABIP,2000-07-02,3916,2023
6274010,06,06274,,Biblioteca Popular,,Buenos Aires,Florencio Varela,Villa Vatteone,Bib. Pop. Florencio Sánchez,Virgen de Itatí 911,,1888,11.0,42747941.0,bibliotecaflorenciosanchez@yahoo.com.ar,,,-34.83995,-58.278417,Exacta,CONABIP,1980-01-01,4170,2023
6280020,06,06280,,Biblioteca Popular,,Buenos Aires,Gral Alvarado,Mar del Sur,Bib.Mun.Pop. Eloisa M. Rissoli,Calle 23 e/100 y 98,,AB7607XA,2291.0,491236.0,,,,-38.342667,-57.99445,Exacta,CONABIP,1997-05-25,3767,2023
6280040,06,06280,,Biblioteca Popular,,Buenos Aires,Gral Alvarado,Miramar,Bib.Pop.Mun. General José de San Martín,34 940,,7607,2291.0,430867.0,biblioteca_miramar@yahoo.com.ar,,,-38.278283,-57.843517,Exacta,CONABIP,1976-12-19,3518,2023
6287010,06,06287,,Biblioteca Popular,,Buenos Aires,Gral Alvear,General Alvear,Bib.Pop. Florencio Balcarce,San Martín 341,,7263,2344.0,481246.0,bibliofbalcarce@yahoo.com.ar,,,-36.01695,-60.014533,Exacta,CONABIP,1915-04-29,131,2023
6294010,06,06294,,Biblioteca Popular,,Buenos Aires,Gral Arenales,Arribeños,Bib.Pop. Bernardino Rivadavia,Gral.Lavalle 88 0,,6007,2353.0,497844.0,,,,-34.20835,-61.35665,Exacta,CONABIP,1932-10-12,1707,2023
6294020,06,06294,,Biblioteca Popular,,Buenos Aires,Gral Arenales,Ascención,Bib.Pop. Domingo Faustino Sarmiento de Ascención,Rafael Reta 0,,6003,236.0,154561340.0,,,,-34.231017,-61.104667,Exacta,CONABIP,2003-10-23,4119,2023
6308010,06,06308,,Biblioteca Popular,,Buenos Aires,Gral Guido,General Guido,Bib.Pop. Carlos Guido Spano,25 de Mayo,,7118,,,,,,-36.641133,-57.792,Exacta,CONABIP,1980-01-01,276,2023
6315010,06,06315,,Biblioteca Popular,,Buenos Aires,Gral Juan Madariaga,General Juan Madariaga,Bib.Pop. José Hernández del Club Deportivo El León,Sarmiento 638,,7163,2267.0,420754.0,,,,-36.994272,-57.139079,Exacta,CONABIP,1944-04-02,2789,2023
6322010,06,06322,,Biblioteca Popular,,Buenos Aires,Gral La Madrid,General La Madrid,Bib.Pop. Presidente Mitre,San Martín 666,,B7406AMK,2286.0,471019.0,nesoa_07@yahoo.com.ar,,,-37.2485,-61.262833,Exacta,CONABIP,1944-03-15,2914,2023
6329020,06,06329,,Biblioteca Popular,,Buenos Aires,Gral Las Heras,General Las Heras,Bib.Pop. Felipe de Robles (h,Las Heras 940,,B1741BIT,,,,,,-34.916667,-58.933333,Exacta,CONABIP,1914-12-02,174,2023
6336020,06,06336,,Biblioteca Popular,,Buenos Aires,Gral Lavalle,General Lavalle,Bib.Pop.Pub.Mun. General Lavalle,Arturo de la Serna 1174,,7103,2252.0,491147.0,bibliotecaglavalle@hotmail.com,,,-36.406433,-56.94265,Exacta,CONABIP,1974-05-01,3292,2023
6351040,06,06351,,Biblioteca Popular,,Buenos Aires,Gral Pinto,Coronel Granada,Bib.Pop.Esc. Antártida Argentina,San Martín y Lariguet 0,,6062,2356.0,495209.0,bibliogranada@yahoo.com.ar,,,-34.789467,-62.201203,Exacta,CONABIP,1996-11-22,3633,2023
6351020,06,06351,,Biblioteca Popular,,Buenos Aires,Gral Pinto,General Pinto,Bib.Pop. D.F.Sarmiento,San Martín y R. Gowland 0,,6050,2356.0,421129.0,,,,-34.76567,-61.892545,Exacta,CONABIP,1913-06-13,126,2023
6351020,06,06351,,Biblioteca Popular,,Buenos Aires,Gral Pinto,General Pinto,Bib. Esc. Pop. Ricardo Rojas,Julio A.Roca 676,,6050,2356.0,420018.0,,,,-34.762567,-61.894133,Exacta,CONABIP,1961-03-01,2824,2023
6351020,06,06351,,Biblioteca Popular,,Buenos Aires,Gral Pinto,General Pinto,Bib. Pop. Juan XXIII,2 de abril 136,,6050,,,bibliotecapopularjuan23@hotmail.com,,,-34.767633,-61.901083,Exacta,CONABIP,2000-06-10,3922,2023
6357110,06,06357,,Biblioteca Popular,,Buenos Aires,Gral Pueyrredon,Mar del Plata,Bib.Pop. Juventud Moderna,Diag. Pueyrredón 3324 1º,,7600,223.0,4953524.0,,,,-38.0,-57.5551,Exacta,CONABIP,1911-11-16,2697,2023
6357110,06,06357,,Biblioteca Popular,,Buenos Aires,Gral Pueyrredon,Mar del Plata,Bib.Pop.y C.Cult. Mar del Plata,Bolivar 4252,,7600,2234.0,759334.0,,,,-37.994233,-57.566083,Exacta,CONABIP,1994-11-21,3476,2023
6357110,06,06357,,Biblioteca Popular,,Buenos Aires,Gral Pueyrredon,Mar del Plata,Bib.Pop. Juan Domingo Perón,Av.Jara 759,,7600,,,,,,-37.979483,-57.565017,Exacta,CONABIP,1980-01-01,3836,2023
6357110,06,06357,,Biblioteca Popular,,Buenos Aires,Gral Pueyrredon,Mar del Plata,Bib.Pop. Barrio Santa Rita,Intendente Camusso 1152,,7600,223.0,4811907.0,,,,-38.01775,-57.592833,Exacta,CONABIP,1980-01-01,4076,2023
6357110,06,06357,,Biblioteca Popular,,Buenos Aires,Gral Pueyrredon,Mar del Plata,Bib.Pop. y Cen.Cul. Centenario,Avellaneda y Tierra del Fuego Sector 3 Edificio 4  PB,,7600,223.0,4744491.0,,,,-37.994833,-57.58715,Exacta,CONABIP,1996-09-21,4122,2023
6357110,06,06357,,Biblioteca Popular,,Buenos Aires,Gral Pueyrredon,Mar del Plata,Bib.Pop. El Desafío para Crecer,Juan N. Fernández 146,,7600,223.0,4653106.0,,,,-37.996215,-57.604208,Exacta,CONABIP,2014-11-10,4349,2023
6364030,06,06364,,Biblioteca Popular,,Buenos Aires,Gral Rodriguez,General Rodriguez,Bib.Pop. Leandro N. Alem,Av.España 146,,1748,237.0,4840478.0,,,,-34.607167,-58.953883,Exacta,CONABIP,1936-07-20,2063,2023
6385030,06,06385,,Biblioteca Popular,,Buenos Aires,Gral Viamonte,Los Toldos,Bib. Pop. Mariano Moreno,Rivadavia 137,,B6015COC,2358.0,442003.0,bibpopmm_lostoldos@yahoo.com.ar,,,-34.994282,-61.035709,Exacta,CONABIP,1939-05-07,2501,2023
6385030,06,06385,,Biblioteca Popular,,Buenos Aires,Gral Viamonte,Los Toldos,Bib.Pop. Minchekewun,O´Higgins 1136,,6015,2355.0,15415636.0,,,,-35.000367,-61.038317,Exacta,CONABIP,2011-05-12,4280,2023
6392010,06,06392,,Biblioteca Popular,,Buenos Aires,Gral Villegas,Banderalo,Bib.Esc.Pop. José Manuel Estrada,Ing.White 222,,6244,3388.0,499365.0,bibliob@yahoo.com.ar,,,-35.016171,-63.37463,Exacta,CONABIP,1961-10-21,3724,2023
6392020,06,06392,,Biblioteca Popular,,Buenos Aires,Gral Villegas,Cañada Seca,Bib.Pop.Pub.Mun. Dolores A. Cirio de Busso,C. Saavedra Lamas s/n 0,,B6105ACA,3382.0,494062.0,biblio@cseca.com.ar,,,-34.433331,-62.950001,Exacta,CONABIP,1991-06-28,3196,2023
6392050,06,06392,,Biblioteca Popular,,Buenos Aires,Gral Villegas,General Villegas,Bib.Pop.Pub.Mun. D.F.Sarmiento,Belgrano 229,,6230,3388.0,423611.0,biblio@servicoopsa.com.ar,,,-35.033783,-63.0131,Exacta,CONABIP,1935-08-25,3194,2023
6392080,06,06392,,Biblioteca Popular,,Buenos Aires,Gral Villegas,Piedritas,Bib.Pop.Pub.Mun. Benito Lynch,Sarmiento 675,,6241,3388.0,494495.0,blynch@servicoopsa.com.ar,,,-34.777222,-62.984619,Exacta,CONABIP,1979-10-27,3197,2023
6392100,06,06392,,Biblioteca Popular,,Buenos Aires,Gral Villegas,Santa Regina,Bib.Púb. Municipal Fortín de Gainza,Libertad  y Tucumán,,6138,3382.0,495181.0,biblioteca_fortingainza09@hotmail.com,,,-34.554749,-63.17688,Exacta,CONABIP,1991-09-05,3339,2023
6399010,06,06399,,Biblioteca Popular,,Buenos Aires,Guamini,Arroyo Venado,Bib.Pop. Angela A.B. de Abraham,Estación Ferrocarril Roca,,6437,,,,,,-37.136215,-62.561939,Exacta,CONABIP,2000-08-20,3925,2023
6399050,06,06399,,Biblioteca Popular,,Buenos Aires,Guamini,Bonifacio-Laguna Alsina,Bib. Pop. José Hernández,26 de Julio 0,,6439,2929.0,493284.0,bibliojh97@yahoo.com.ar,,,-36.80945,-62.242017,Exacta,CONABIP,1980-01-01,3715,2023
6399020,06,06399,,Biblioteca Popular,,Buenos Aires,Guamini,Casbas,Bib.Pop. Dardo Nepomuceno Arditi Rocha,Justo Condesse 357,,6417,,,bparditirocha@hotmail.com,,,-36.756483,-62.504817,Exacta,CONABIP,2000-11-27,4069,2023
6399030,06,06399,,Biblioteca Popular,,Buenos Aires,Guamini,Garré,Bib.Pop. Dra. Alicia Teresa Morales,Diagonal Norte 0,,6411,2923.0,15430043.0,bpaliciatmorales_garre@yahoo.com.ar,,,-36.560983,-62.601517,Exacta,CONABIP,1980-01-01,4177,2023
6399040,06,06399,,Biblioteca Popular,,Buenos Aires,Guamini,Guaminí,Bib.Pub. Mariano Moreno,San Martín 325,,6435,2929.0,430163.0,,,,-37.0131,-62.4162,Exacta,CONABIP,1956-10-25,2998,2023
6406010,06,06406,,Biblioteca Popular,,Buenos Aires,Hipolito Yrigoyen,Henderson,Bib.Pop. Almafuerte,Diag.Yrigoyen 192,,6465,2314.0,452283.0,bibliopopalmafuerte@yahoo.com.ar,,,-36.301367,-61.71985,Exacta,CONABIP,1922-06-14,1248,2023
6408010,06,06408,,Biblioteca Popular,,Buenos Aires,Hurlingham,Hurlingham,Bib.Pop.Soc.Fom. Julián Aguirre,Julian Aguirre 1870,,1686,11.0,46652460.0,,,,-34.59245,-58.639367,Exacta,CONABIP,1975-05-13,2923,2023
6408010,06,06408,,Biblioteca Popular,,Buenos Aires,Hurlingham,William C.Morris,Bib.Pop. Alfredo L. Palacios,Garibaldi 2138,,1686,11.0,44525483.0,biblioapalacios@yahoo.com.ar,,,-34.582117,-58.6451,Exacta,CONABIP,1980-01-01,3621,2023
6410010,06,06410,,Biblioteca Popular,,Buenos Aires,Ituzaingo,Villa Udaondo,Soc.y Bib.Pop. La tradición,Julián Balbín 4020,,1714,11.0,44812711.0,bibliotecalatradicion@yahoo.com.ar,,,-34.620327,-58.700737,Exacta,CONABIP,2000-04-16,4002,2023
6413050,06,06413,,Biblioteca Popular,,Buenos Aires,Junin,Junín,Bib.Pop. Olegario V. Andrade,Belgrano 191,,B600GZC,236.0,4428071.0,,,,-34.590533,-60.949067,Exacta,CONABIP,1909-05-27,139,2023
6413050,06,06413,,Biblioteca Popular,,Buenos Aires,Junin,Junín,Bib.Pop. Paz y trabajo,Primera Junta 301,,6000,2362.0,4423342.0,,,,-34.582617,-60.935967,Exacta,CONABIP,1923-04-12,1054,2023
6413050,06,06413,,Biblioteca Popular,,Buenos Aires,Junin,Junín,Bib.Pop. Pedro Aguilera,Paso esq. Siria 908,,6000,236.0,4424667.0,,,,-34.5732,-60.943333,Exacta,CONABIP,1928-10-05,1412,2023
6413050,06,06413,,Biblioteca Popular,,Buenos Aires,Junin,Junín,Bib.Pop. Esteban Echeverría,Lebensohn 501 y Gral.Lavalle 0,,B6000BHK,236.0,4433933.0,,,,-34.590067,-60.935433,Exacta,CONABIP,1930-02-04,1454,2023
6413050,06,06413,,Biblioteca Popular,,Buenos Aires,Junin,Junín,Bib.Pop. 9 de Julio,Roque Vasquez 7,,6000,2364.0,441106.0,biblioteca9dejulio@gmail.com,,,-34.595933,-60.944717,Exacta,CONABIP,1933-06-02,1809,2023
6413050,06,06413,,Biblioteca Popular,,Buenos Aires,Junin,Junín,Bib.Pop. Manuel Belgrano,Siria 385,,6000,236.0,4423801.0,armando_de_miguel@hotmail.com,,,-34.577133,-60.9479,Exacta,CONABIP,1929-02-19,1874,2023
6413050,06,06413,,Biblioteca Popular,,Buenos Aires,Junin,Junín,Bib. Pop. Pio Soberano,General Paz 444,,6000,,,piosoberanobibliotecapopular@gmail.com,,,-34.5850218,-60.9483026,Exacta,CONABIP,2022-03-11,4389,2023
6413070,06,06413,,Biblioteca Popular,,Buenos Aires,Junin,Morse,Bib.Pop. Juan Bautista Alberdi,Av. Los Tilos 47,,6013,,,,,,-34.7604,-60.84195,Exacta,CONABIP,1940-05-07,3928,2023
6420010,06,06420,,Biblioteca Popular,,Buenos Aires,La Costa,Las Toninas,Bib.Pop. Las Toninas,Calle 1 1066,,B7106BAV,2246.0,431401.0,biblo093@yahoo.com.ar,,,-36.487017,-56.69335,Exacta,CONABIP,1985-09-01,3696,2023
6420040,06,06420,,Biblioteca Popular,,Buenos Aires,La Costa,Mar del Tuyú,Bib.Pop. Vito Dumas,Calle 3 7552,,7108,2246.0,435285.0,bibliotecamardeltuyu@yahoo.com.ar,,,-36.5778,-56.69195,Exacta,CONABIP,1992-06-15,3574,2023
6420040,06,06420,,Biblioteca Popular,,Buenos Aires,La Costa,Mar del Tuyú,Bib. Pop.Dr. José María Sobral,95 1108,,7108,2246.0,434084.0,bibliotecasobral@yahoo.com.ar,,,-36.596739,-56.705267,Exacta,CONABIP,2005-07-23,4368,2023
6420030,06,06420,,Biblioteca Popular,,Buenos Aires,La Costa,San Clemente del Tuyú,Bib.Pop. Juan XXIII,8 1051,,7105,2252.0,526840.0,,,,-36.35775,-56.724233,Exacta,CONABIP,1980-01-01,3910,2023
6420030,06,06420,,Biblioteca Popular,,Buenos Aires,La Costa,San Clemente del Tuyú,Soc.Fo.y Bib.Pop. El Tala,Calle 9 4068,,7105,2252.0,421525.0,bib-arocha@educar,,,-36.384667,-56.71695,Exacta,CONABIP,1980-01-01,4125,2023
6420040,06,06420,,Biblioteca Popular,,Buenos Aires,La Costa,Santa Teresita,Bib.Pub. Alfonsina Storni,Calle 7 256 1,,7107,2246.0,430567.0,ctc0057@hotmail.com,,,-36.532533,-56.697717,Exacta,CONABIP,1980-01-01,3128,2023
6427010,06,06427,,Biblioteca Popular,,Buenos Aires,La Matanza,Ciudad Evita,Bib.Pop. Alfonsina Storni,Circuns.5 Sec.1 Man.2 Casa 1,,1778,11.0,46203606.0,,,,-34.719654,-58.540791,Exacta,CONABIP,1963-11-03,2880,2023
6427010,06,06427,,Biblioteca Popular,,Buenos Aires,La Matanza,Ciudad Villa Madero,Bib.Pop. y Ctro Cult. José M. Estrada,Araoz 553,,1768,11.0,46521626.0,bibliotecamflara@hotmail.com,,,-34.68855,-58.509167,Exacta,CONABIP,1976-09-04,4299,2023
6427010,06,06427,,Biblioteca Popular,,Buenos Aires,La Matanza,Gonzalez Catán,Bib.Pop. Ceferino Namuncura,Achupallas 7218,,1759,2202.0,452930.0,,,,-34.77975,-58.60615,Exacta,CONABIP,1980-01-01,3241,2023
6427010,06,06427,,Biblioteca Popular,,Buenos Aires,La Matanza,Isidro Casanova,Bib.Pop. Delia C. de Armagno,Brigadier General Juan Manuel de Rosas 8035,,1765,11.0,44852916.0,fundaciondeliacdea@gmail.com,,,-34.712583,-58.591183,Exacta,CONABIP,1980-01-01,3293,2023
6427010,06,06427,,Biblioteca Popular,,Buenos Aires,La Matanza,Isidro Casanova,Bib.Pop. Rotaria,Madrid esq. Sarrachaga 6198,,1765,,,bibliotecapopularrotaria@yahoo.com.ar,,,-34.700983,-58.589833,Exacta,CONABIP,1980-01-01,4182,2023
6427010,06,06427,,Biblioteca Popular,,Buenos Aires,La Matanza,La Tablada,Bib.Pop. Amigos de La Tablada,Avellaneda 5211,,1766,11.0,39669678.0,amigosdelatablada@yahoo.com.ar,,,-34.68785,-58.522733,Exacta,CONABIP,1998-11-10,4010,2023
6427010,06,06427,,Biblioteca Popular,,Buenos Aires,La Matanza,Rafael Castillo,Bib.Pop. Almafuerte de Rafael Castillo,Grauville 2158,,1755,11.0,46900797.0,biblioteca_alma@hotmail.com,,,-34.701067,-58.625467,Exacta,CONABIP,1980-01-01,4228,2023
6427010,06,06427,,Biblioteca Popular,,Buenos Aires,La Matanza,Ramos Mejía,Bib.Pop. Tinkunaku-Lugar de encuentro,Felipe de Arana 750,,1704,11.0,44647376.0,bptinkunaku@yahoo.com.ar,,,-34.661933,-58.554017,Exacta,CONABIP,2000-06-01,3921,2023
6427010,06,06427,,Biblioteca Popular,,Buenos Aires,La Matanza,San Justo,Bib.Pop. Almafuerte,Sarratea 4267,,1754,11.0,44610970.0,bibalma@yahoo.com.ar,,,-34.684233,-58.55625,Exacta,CONABIP,1993-06-11,3203,2023
6427010,06,06427,,Biblioteca Popular,,Buenos Aires,La Matanza,San Justo,Bib. Pop. Villa Sahores,Inclan 2063,,1754,11.0,44843477.0,biblioteca303@yahoo.com.ar,,,-34.684083,-58.545817,Exacta,CONABIP,1999-03-30,3762,2023
6427010,06,06427,,Biblioteca Popular,,Buenos Aires,La Matanza,San Justo,Bib.Pop. de la Imagen (CEIC),Juan Florio 3260,,1754,11.0,44847779.0,bibliotecapopularimagen121@gmail.com,,,-34.681016,-58.560516,Exacta,CONABIP,2003-02-21,4338,2023
6427010,06,06427,,Biblioteca Popular,,Buenos Aires,La Matanza,Tapiales,"Centro Cultural y Recreativo, Bib.Pop. Mariano Moreno",Humahuaca 254 1° piso,,1770,11.0,44425835.0,bibliomoreno@yahoo.com.ar,,,-34.69785,-58.511217,Exacta,CONABIP,1930-04-18,1880,2023
6427010,06,06427,,Biblioteca Popular,,Buenos Aires,La Matanza,Virrey del Pino,Bib. Pop. Madre Teresa,Villanueva 3435,,1763,2202.0,446921.0,,,,-34.809982,-58.637619,Exacta,CONABIP,1998-02-17,3730,2023
6427010,06,06427,,Biblioteca Popular,,Buenos Aires,La Matanza,Virrey del Pino,Bib.Pop. Trabajadores del Yaguané,Cellini 5033,,1763,,,,,,-34.83442,-58.672303,Exacta,CONABIP,1999-02-02,3913,2023
6427010,06,06427,,Biblioteca Popular,,Buenos Aires,La Matanza,Virrey del Pino,Bib. Pop. Virrey del Pino,Gorostiaga 5885,,1763,2202.0,497242.0,biblioteca308@yahoo.com.ar,,,-34.850467,-58.65555,Exacta,CONABIP,1999-12-06,4041,2023
6441030,06,06441,,Biblioteca Popular,,Buenos Aires,La Plata,City Bell,Bib.Pop. Florentino Ameghino,474- (Av.Cantilo),,1896,221.0,4800140.0,bibliofameghino@yahoo.com.ar,,,-34.869483,-58.044883,Exacta,CONABIP,1936-09-26,2585,2023
6441030,06,06441,,Biblioteca Popular,,Buenos Aires,La Plata,José Hernández,Bib.Pop. José Hernández,Calle 31 e/510 y 511 0,,1903,221.0,4840387.0,,,,-34.90485,-58.01795,Exacta,CONABIP,1997-09-20,3736,2023
6441030,06,06441,,Biblioteca Popular,,Buenos Aires,La Plata,La Plata,Bib.Pop. Florentino Ameghino,Calle 58 Nº 774 0,,1900,221.0,4241631.0,bibliotecaalborada@yahoo.com,,,-34.9225,-57.947317,Exacta,CONABIP,1918-05-02,165,2023
6441030,06,06441,,Biblioteca Popular,,Buenos Aires,La Plata,La Plata,Bib.Pop. Bernardino Rivadavia,39 (e/115 y 116) 215,,1900,221.0,4832620.0,,,,-34.899333,-57.95315,Exacta,CONABIP,1915-10-01,1483,2023
6441030,06,06441,,Biblioteca Popular,,Buenos Aires,La Plata,La Plata,Bib.Pop. Dr. Nicolás Avellaneda,Calle 7 2241,,1900,221.0,4520543.0,,,,-34.8817,-57.994183,Exacta,CONABIP,1927-12-27,1747,2023
6441030,06,06441,,Biblioteca Popular,,Buenos Aires,La Plata,La Plata,Bib.Pop. Joaquín V. González,Avda. 40 1027,,1900,221.0,4216703.0,,,,-34.915317,-57.968567,Exacta,CONABIP,1903-10-12,1830,2023
6441030,06,06441,,Biblioteca Popular,,Buenos Aires,La Plata,La Plata,Bib. Euforión,Diagonal 79 Nº 371 e/ 62 y 63 0,,1900,221.0,4273019.0,,,,-34.915133,-57.930467,Exacta,CONABIP,1927-08-03,1973,2023
6441030,06,06441,,Biblioteca Popular,,Buenos Aires,La Plata,La Plata,Bib.Pop.Gral. San Martín,Calle 22 986,,1900,221.0,4573670.0,bibliotecapopularsanmartin@hotmail.com,,,-34.929983,-57.963483,Exacta,CONABIP,1936-04-15,2069,2023
6441030,06,06441,,Biblioteca Popular,,Buenos Aires,La Plata,La Plata,Cen. de Fom. M. V y Bib.Pub.Pop. Enrique Gonino,Calle 67 1080,,1900,221.0,4510357.0,bibliotecameridianov@hotmail.com,,,-34.935759,-57.943368,Exacta,CONABIP,1929-04-16,2098,2023
6441030,06,06441,,Biblioteca Popular,,Buenos Aires,La Plata,La Plata,Bib.Pop. Luis A. Repetto,Calle 59 584,,B1900BSX,221.0,4233036.0,bprepetto@gmail.com,,,-34.919617,-57.942317,Exacta,CONABIP,1941-12-06,2127,2023
6441030,06,06441,,Biblioteca Popular,,Buenos Aires,La Plata,La Plata,Bib. Pop. Florentino Ameghino,10 784,,1900,221.0,4213067.0,bibliotecafameghino@hotmail.com,,,-34.9163,-57.9546,Exacta,CONABIP,1945-01-01,2323,2023
6441030,06,06441,,Biblioteca Popular,,Buenos Aires,La Plata,La Plata,"Bib.Pop. Juan Vucetich, C.C. Y Dep. Aconcagua",69 480,,1900,221.0,4821734.0,bibliojuanvucetich@gmail.com,,,-34.926056,-57.928771,Exacta,CONABIP,1944-07-01,2436,2023
6441030,06,06441,,Biblioteca Popular,,Buenos Aires,La Plata,La Plata,Bib.Pop. Mario L. Sureda,Calle 14 Nº 1528 0,,1900,221.0,4513230.0,,,,-34.930467,-57.944667,Exacta,CONABIP,1947-09-21,2498,2023
6441030,06,06441,,Biblioteca Popular,,Buenos Aires,La Plata,La Plata,Bib.Pop. Mariano Moreno,Calle 3 967,,1900,221.0,4275031.0,,,,-34.91185,-57.94455,Exacta,CONABIP,1939-03-27,2546,2023
6441030,06,06441,,Biblioteca Popular,,Buenos Aires,La Plata,La Plata,Bib.Pop. Dardo Rocha,71 331,,1900,221.0,4212008.0,,,,-34.925133,-57.923517,Exacta,CONABIP,1954-11-30,2644,2023
6441030,06,06441,,Biblioteca Popular,,Buenos Aires,La Plata,La Plata,Bib.Pop. Bernardo de Monteagudo,Calle 51 1088,,1900,221.0,4506601.0,,,,-34.924367,-57.9591,Exacta,CONABIP,1940-11-12,2757,2023
6441030,06,06441,,Biblioteca Popular,,Buenos Aires,La Plata,La Plata,Bib.Pub. Central Gral. José de San Martín,Calle 47 510,,1900,221.0,4254954.0,,,,-34.911367,-57.950267,Exacta,CONABIP,1950-02-23,3313,2023
6441030,06,06441,,Biblioteca Popular,,Buenos Aires,La Plata,La Plata,Bib.Pop. E. S. Discépolo para la Cult.Nac.,Calle 13 2226,,1900,221.0,4532495.0,,,,-34.887533,-58.000317,Exacta,CONABIP,1980-01-01,3681,2023
6441030,06,06441,,Biblioteca Popular,,Buenos Aires,La Plata,La Plata,Bib. Pop. Homero Manzi,57 379 2,,1900,221.0,4272346.0,bib.homeromanzi@gmail.com,,,-34.9144,-57.940217,Exacta,CONABIP,1980-01-01,3717,2023
6441030,06,06441,,Biblioteca Popular,,Buenos Aires,La Plata,La Plata,Bib.Pop. Instituto Platense de Cult. Hispánica,Calle 6 1040,,B1900DSJ,221.0,4226327.0,,,,-34.915583,-57.946283,Exacta,CONABIP,1960-10-12,3786,2023
6441030,06,06441,,Biblioteca Popular,,Buenos Aires,La Plata,La Plata,Asoc.Cult.Bib.Pop. Vida y Lucha de Elizalde,81 s/n (frente al nº 1274) 0,,1900,221.0,4571864.0,biblioteca_elizalde@yahoo.com.ar,,,-34.950428,-57.952118,Exacta,CONABIP,1993-08-23,3877,2023
6441030,06,06441,,Biblioteca Popular,,Buenos Aires,La Plata,La Plata,Casa del Tango y Bib.Pop. Carlos Gardel,Calle 43 413,,1900,221.0,4226730.0,casadeltango_lp@hotmail.com.ar,,,-34.9063,-57.952567,Exacta,CONABIP,1980-01-01,3954,2023
6441030,06,06441,,Biblioteca Popular,,Buenos Aires,La Plata,La Plata,Cen. y Bib.Pop. Carlos Bormida,Calle 38 1918,,1900,,,bibliopcarlosbormida@yahoo.com.ar,,,-34.932617,-57.991667,Exacta,CONABIP,2001-11-04,4140,2023
6441030,06,06441,,Biblioteca Popular,,Buenos Aires,La Plata,La Plata,Cent.Cu. Y Bib.Pop. Enlazando palabras,Calle 521 4568,,1900,221.0,4705297.0,ongenlazandopalabras@hotmail.com,,,-34.92195,-58.017217,Exacta,CONABIP,1980-01-01,4171,2023
6441030,06,06441,,Biblioteca Popular,,Buenos Aires,La Plata,La Plata,Bib.Pop. Del otro lado del árbol,14  s/n 0,,1900,221.0,155658093.0,delotroladodelarbol@hotmail.com,,,-34.920717,-57.953933,Exacta,CONABIP,2011-02-01,4288,2023
6441030,06,06441,,Biblioteca Popular,,Buenos Aires,La Plata,La Plata,Bib.Pop. La Chicharra,71 1138,,1900,221.0,4521894.0,lagrietaylachicharra@gmail.com,,,-34.939899,-57.939992,Exacta,CONABIP,2007-10-01,4376,2023
6441030,06,06441,,Biblioteca Popular,,Buenos Aires,La Plata,Los Hornos,Bib.Pop.Bartolomé Mitre,137 1415,,1900,221.0,4507245.0,cfloshornos@yahoo.com.ar,,,-34.917033,-58.016267,Exacta,CONABIP,1933-09-11,2271,2023
6441030,06,06441,,Biblioteca Popular,,Buenos Aires,La Plata,Manuel B.Gonnet,Bib.Pop. Dr. Roman S. Harosteguy,Calle 502 2068,,1897,221.0,4846969.0,biblioharosteguy@yahoo.com.ar,,,-34.883433,-58.011767,Exacta,CONABIP,1980-01-01,3211,2023
6441030,06,06441,,Biblioteca Popular,,Buenos Aires,La Plata,Manuel B.Gonnet,Com.Vec.y Bib.Pop. Gonnet Bell,Calle 15 4080,,1897,2214.0,846900.0,,,,-34.877417,-58.026617,Exacta,CONABIP,1995-06-02,3956,2023
6441030,06,06441,,Biblioteca Popular,,Buenos Aires,La Plata,Tolosa,Bib. Pop. Mariano Moreno,1 356,,1900,221.0,4821070.0,bibpopmarianomoreno@hotmail.com,,,-34.8923421,-57.9666527,Exacta,CONABIP,1936-07-11,1920,2023
6441030,06,06441,,Biblioteca Popular,,Buenos Aires,La Plata,Tolosa,Bib.Pop. D.F.Sarmiento,522 s/n,,1900,11.0,4277689.0,,,,-34.8916,-57.9797,Exacta,CONABIP,1923-12-23,2438,2023
6441030,06,06441,,Biblioteca Popular,,Buenos Aires,La Plata,villa Castells,Bib. Pop. Tupac Amaru infantil y juvenil,9 17,,1897,221.0,4718282.0,bibliotecatupacamaru@yahoo.com.ar,,,-34.887283,-57.994933,Exacta,CONABIP,1999-10-12,4066,2023
6441030,06,06441,,Biblioteca Popular,,Buenos Aires,La Plata,Villa Elisa,Bib.Pop. Alejo Iglesias,6 (ex12) 1086,,B1894GPP,221.0,4730649.0,,,,-34.852017,-58.08055,Exacta,CONABIP,1920-06-08,249,2023
6434010,06,06434,,Biblioteca Popular,,Buenos Aires,Lanus,Lanús,Cen. y Bib.Pop. Osvaldo Pugliese,Aristóbulo del Valle 1370,,1824,11.0,42415681.0,,,,-34.703733,-58.411267,Exacta,CONABIP,1999-04-30,4117,2023
6434010,06,06434,,Biblioteca Popular,,Buenos Aires,Lanus,Lanús Este,Bib.Pop. Libertador San Martín,Eva Perón (y gral. deheza) 2597,,B1824ICK,11.0,42493631.0,,,,-34.714967,-58.371683,Exacta,CONABIP,1917-09-07,150,2023
6434010,06,06434,,Biblioteca Popular,,Buenos Aires,Lanus,Lanús Este,Bib. Pp. Soc. Bomberos Voluntarios de Lanús,Gral.Rodriguez 1039,,1824,11.0,42257383.0,,,,-34.69835,-58.381067,Exacta,CONABIP,1945-10-12,2713,2023
6434010,06,06434,,Biblioteca Popular,,Buenos Aires,Lanus,Lanús Este,Bib.Pop.Mun. Mariano Moreno,Sarmiento esq. Tucumán,,B1824AMQ,,,,,,-34.70535,-58.388017,Exacta,CONABIP,1994-06-06,3448,2023
6434010,06,06434,,Biblioteca Popular,,Buenos Aires,Lanus,Lanús Este,Bib.Pop. Olga Cossettini,Centenario Uruguayo 580,,1824,11.0,42890888.0,,,,-34.71475,-58.353933,Exacta,CONABIP,2001-07-16,4021,2023
6434010,06,06434,,Biblioteca Popular,,Buenos Aires,Lanus,Lanús Oeste,Bib.Pop. Florentino Ameghino,C.Warnes 1523,,1824,11.0,42660570.0,bibliopopameghino@hotmail.com,,,-34.696017,-58.41125,Exacta,CONABIP,1980-01-01,3431,2023
6434010,06,06434,,Biblioteca Popular,,Buenos Aires,Lanus,Lanús Oeste,Bib.Pop. Mariano Moreno,Enrique Fernandez 3168,,1824,11.0,42624044.0,,,,-34.699745,-58.417332,Exacta,CONABIP,1997-03-16,3649,2023
6434010,06,06434,,Biblioteca Popular,,Buenos Aires,Lanus,Monte Chingolo,Bib.Pop. Monte Chingolo,General Pintos 4752,,1825,11.0,49338869.0,bibliotecapopularmontechingolo@gmail.com,,,-34.731407,-58.350723,Exacta,CONABIP,1980-01-01,4135,2023
6434010,06,06434,,Biblioteca Popular,,Buenos Aires,Lanus,Remedios de Escalada,Bib.Pop. Alberdi,Coronel Beltran 70 0,,B1826BRB,11.0,42882847.0,balberdiescalada@gmail.com,,,-34.725956,-58.396282,Exacta,CONABIP,1919-09-19,2676,2023
6434010,06,06434,,Biblioteca Popular,,Buenos Aires,Lanus,Remedios de Escalada,Bib.Pop. Dr. E. Angel Barriocanal,General Deheza 3268 0,,1826,11.0,42308016.0,bibliotecabarriocanal@yahoo.com.ar,,,-34.728687,-58.385983,Exacta,CONABIP,1955-09-03,2767,2023
6434010,06,06434,,Biblioteca Popular,,Buenos Aires,Lanus,Remedios de Escalada,Bib. Pop. Juan B. Justo,Av.Luján 3392,,B1826GFZ,11.0,42460172.0,roxanacaterbetti42@hotmail.com,,,-34.729553,-58.389496,Exacta,CONABIP,1930-10-05,3828,2023
6434010,06,06434,,Biblioteca Popular,,Buenos Aires,Lanus,Valentín Alsina,Bib.Pop.y Soc.Fom. D.F.Sarmiento,Av. Pte. Perón 3065,,1822,11.0,42283676.0,bibliotecasarmiento@yahoo.com.ar,,,-34.671033,-58.409383,Exacta,CONABIP,1918-03-01,294,2023
6434010,06,06434,,Biblioteca Popular,,Buenos Aires,Lanus,Valentín Alsina,Bib.Pop. 1 de Mayo,Balcarce 2725 0,,B1822BXK,11.0,42286469.0,bibprimerodemayo@hotmail.com,,,-34.682517,-58.41575,Exacta,CONABIP,1914-12-13,1706,2023
6448010,06,06448,,Biblioteca Popular,,Buenos Aires,Laprida,Laprida,Bib.Pop. Laprida,Independencia 1136,,B7414ATH,2285.0,421212.0,bplaprida@yahoo.com.ar,,,-37.542817,-60.799633,Exacta,CONABIP,1940-12-01,2134,2023
6455030,06,06455,,Biblioteca Popular,,Buenos Aires,Las Flores,Las Flores,Bib.Pop. 25 de Mayo,Rivadavia 325,,7200,2244.0,450141.0,,,,-36.012783,-59.0991,Exacta,CONABIP,1928-08-12,1326,2023
6462040,06,06462,,Biblioteca Popular,,Buenos Aires,Leandro N Alem,Juan Bautista Alberdi,Bib.Pop. D.F.Sarmiento,Quintana 0,,6034,2354.0,480800.0,bibliotecapopular@live.com.ar,,,-34.440804,-61.810322,Exacta,CONABIP,1916-08-20,87,2023
6462050,06,06462,,Biblioteca Popular,,Buenos Aires,Leandro N Alem,Leandro N. Alem,Bib.Pop. Mariano Moreno,Manuel Urizar 369,,6032,351.0,4662976.0,nuevabibliomatienzo@hotmail.com,,,-34.519983,-61.39105,Exacta,CONABIP,1988-06-20,3153,2023
6462060,06,06462,,Biblioteca Popular,,Buenos Aires,Leandro N Alem,Vedia,Bib.Pop.Mun. Esteban Echeverría,Juan de Garay y San Martín 0,,6030,2354.0,422337.0,bibvedia@yahoo.com.ar,,,-34.496433,-61.542283,Exacta,CONABIP,1961-07-09,2872,2023
6469010,06,06469,,Biblioteca Popular,,Buenos Aires,Lincoln,Arenaza,Bib.Pop. José M. Estrada,Av.El Progreso 300,,6075,2355.0,495366.0,,,,-34.98635,-61.775417,Exacta,CONABIP,1945-09-17,2366,2023
6469020,06,06469,,Biblioteca Popular,,Buenos Aires,Lincoln,Bayauca,Bib.Pop. Bartolomé Mitre,Sin dirección 0,,6078,2355.0,494002.0,bibliobayauca@hotmail.com,,,-34.867067,-61.28785,Exacta,CONABIP,1932-06-12,1684,2023
6469040,06,06469,,Biblioteca Popular,,Buenos Aires,Lincoln,Carlos Salas,Bib. Pop. D. F. Sarmiento,Buenos Aires y Tucumán 0,,B6453XAA,2357.0,494094.0,bibliosalas@yahoo.com.ar,,,-35.392448,-61.99036,Exacta,CONABIP,1958-04-18,2729,2023
6469060,06,06469,,Biblioteca Popular,,Buenos Aires,Lincoln,El Triunfo,Bib.Pop. Fortín de la Cult. El triunfo,9 de Septiembre,,6073,2355.0,493300.0,,,,-35.087783,-61.5125,Exacta,CONABIP,1980-01-01,3442,2023
6469070,06,06469,,Biblioteca Popular,,Buenos Aires,Lincoln,Las Toscas,Asoc.Bib.Pop.Mun. Jullian de Castiglioni,Simón Bolívar,,6453,,,,,,-35.36224,-61.806332,Exacta,CONABIP,1980-01-01,3946,2023
6469080,06,06469,,Biblioteca Popular,,Buenos Aires,Lincoln,Lincoln,Bib.Pop.Mun. D.F.Sarmiento,Av.Massey 1439 0,,B6070CKB,2355.0,422394.0,bibliotecasarmientocoop@hotmail.com.ar,,,-34.870017,-61.53265,Exacta,CONABIP,,177,2023
6476030,06,06476,,Biblioteca Popular,,Buenos Aires,Lincoln,Loberia,Bib.Pop. D.F.Sarmiento,Sarmiento 120,,7635,2261.0,440505.0,,,,-38.16465,-58.783983,Exacta,CONABIP,1918-04-05,279,2023
6469100,06,06469,,Biblioteca Popular,,Buenos Aires,Lincoln,Roberts,Bib.Pop. José Ingenieros,Rivadavia (Ex Estación de Ferrocarril) 1490,,B6122AFP,2355.0,498315.0,,,,-35.140517,-61.97195,Exacta,CONABIP,1926-08-06,1232,2023
6476050,06,06476,,Biblioteca Popular,,Buenos Aires,Loberia,San Manuel,Bib.Pop. San Manuel,Belgrano 175,,7007,2261.0,498377.0,bibliopopularsanmanuel@gmail.com,,,-37.786483,-58.8474,Exacta,CONABIP,1993-06-10,3622,2023
6483040,06,06483,,Biblioteca Popular,,Buenos Aires,Lobos,Empalme Lobos,Bib.Pop. Rivadavia,Rivadavia 50,,B7249AGB,2227.0,424614.0,,,,-35.18535,-59.096217,Exacta,CONABIP,1920-12-27,122,2023
6483040,06,06483,,Biblioteca Popular,,Buenos Aires,Lobos,Lobos,Bib.Pop. D.F.Sarmiento,Salgado 4143,,7240,2227.0,421607.0,ccplbsarmiento@yahoo.com.ar,,,-35.16975,-59.0992,Exacta,CONABIP,1912-03-16,175,2023
6483040,06,06483,,Biblioteca Popular,,Buenos Aires,Lobos,Lobos,Bib.Pop. Albino Capponi,Rivadavia 36,,7240,2227.0,431139.0,bibliocapponi@yahoo.com.ar,,,-35.1855,-59.096217,Exacta,CONABIP,1902-01-12,1193,2023
6483040,06,06483,,Biblioteca Popular,,Buenos Aires,Lobos,Lobos,Bib.Pop. Héroes de Malvinas,Av.Leandro N.Alem 485,,7240,2227.0,423509.0,,,,-35.184417,-59.093283,Exacta,CONABIP,1980-01-01,3796,2023
6490010,06,06490,,Biblioteca Popular,,Buenos Aires,Lomas De Zamora,Banfield,Bib.Pop. Alfonsina Storni,Falucho 1550,,1828,,,,,,-34.749917,-58.446767,Exacta,CONABIP,1980-01-01,3865,2023
6490010,06,06490,,Biblioteca Popular,,Buenos Aires,Lomas De Zamora,Fiorito,Bib.Pop.Soc.Fom. Roberto Arlt,Necol 934,,1822,11.0,42865482.0,,,,-34.710117,-58.446117,Exacta,CONABIP,1980-01-01,3149,2023
6490010,06,06490,,Biblioteca Popular,,Buenos Aires,Lomas De Zamora,Ingeniero Budge,Bib. Pop. Leopoldo Marechal,Campana 1629,,1832,11.0,42851819.0,,,,-34.713567,-58.4558,Exacta,CONABIP,1980-01-01,3979,2023
6490010,06,06490,,Biblioteca Popular,,Buenos Aires,Lomas De Zamora,Llavallol,Bib.Pop. Escritores Argentinos,Pasaje Adrogué 186,,1836,11.0,42986025.0,bipopu_argentinos07@yahoo.com.ar,,,-34.801317,-58.431367,Exacta,CONABIP,1980-01-01,4196,2023
6490010,06,06490,,Biblioteca Popular,,Buenos Aires,Lomas De Zamora,Lomas de Zamora,Bib. Pop. Antonio Mentruyt,Italia 44,,B1832DGB,11.0,42440837.0,bibliotecamentruytespectaculos@gmail.com,,,-34.761133,-58.401117,Exacta,CONABIP,1900-05-02,173,2023
6490010,06,06490,,Biblioteca Popular,,Buenos Aires,Lomas De Zamora,Lomas de Zamora,Bib.Pop.E Inst.Cult. Juan María Gutierrez,Almirante Brown 2163,,1832,11.0,42444075.0,,,,-34.762,-58.39645,Exacta,CONABIP,1938-09-18,3404,2023
6490010,06,06490,,Biblioteca Popular,,Buenos Aires,Lomas De Zamora,Lomas de Zamora,Bib.Pop. Julio Cortázar de Lomas Este,Miguel Cané 967,,1832,11.0,42449750.0,bibjuliocortazar@yahoo.com.ar,,,-34.751933,-58.383483,Exacta,CONABIP,2002-12-06,4115,2023
6490010,06,06490,,Biblioteca Popular,,Buenos Aires,Lomas De Zamora,Lomas de Zamora,Bib.Pop. de la ciudad,San Martín 415,,1832,11.0,42440971.0,bibliotecapopulardelaciudad@gmail.com,,,-34.754867,-58.4059,Exacta,CONABIP,2003-01-25,4121,2023
6490010,06,06490,,Biblioteca Popular,,Buenos Aires,Lomas De Zamora,Temperley,Bib.Pop. Vicente Longhi,Av. 9 de Julio 360,,5603,11.0,42988318.0,bibliolonghi@hotmail.com,,,-34.782383,-58.4011,Exacta,CONABIP,1980-01-01,2401,2023
6490010,06,06490,,Biblioteca Popular,,Buenos Aires,Lomas De Zamora,Temperley,Bib.Pop. San José,Portugal y Armesti 0,,1834,11.0,42603202.0,bibliotecasanjose2000@yahoo.com.ar,,,-34.749533,-58.363883,Exacta,CONABIP,1980-01-01,3754,2023
6490010,06,06490,,Biblioteca Popular,,Buenos Aires,Lomas De Zamora,Temperley,Bib.Pop. Tito Brandsma,Juramento 2515,,1834,11.0,42645318.0,,,,-34.771076,-58.360558,Exacta,CONABIP,1980-01-01,3823,2023
6490010,06,06490,,Biblioteca Popular,,Buenos Aires,Lomas De Zamora,Temperley,Bib.Pop. San Juan,El cardenal 4485,,1834,11.0,42602926.0,bibliotecapopular_sanjuan@hotmail.com,,,-34.750889,-58.343662,Exacta,CONABIP,2000-08-16,4008,2023
6497020,06,06497,,Biblioteca Popular,,Buenos Aires,Lujan,Carlos Keen,Bib.Pop. de Carlos Keen,José C. Paz 393,,6701,0.0,0.0,lecturaenck@gmail.com,,,-34.49165,-59.2199,Exacta,CONABIP,2001-03-02,4340,2023
6497060,06,06497,,Biblioteca Popular,,Buenos Aires,Lujan,Luján,Bib. Pop.  Ameghino,San Martín 485,,B6700ZBA,2323.0,420329.0,salonesbibliotecaameghino@gmail.com,,,-34.565733,-59.11545,Exacta,CONABIP,1914-11-27,168,2023
6497060,06,06497,,Biblioteca Popular,,Buenos Aires,Lujan,Luján,Bib. Obrera Jean Jaures,Lavalle 758,,B6700ANR,2323.0,424068.0,,,,-34.5655,-59.111083,Exacta,CONABIP,1918-03-29,3182,2023
6497060,06,06497,,Biblioteca Popular,,Buenos Aires,Lujan,Luján,Bib.Pop. Ernesto Sábato,Güemes 860,,6700,,,,,,-34.5681,-59.101667,Exacta,CONABIP,1996-05-25,3656,2023
6497060,06,06497,,Biblioteca Popular,,Buenos Aires,Lujan,Open Door,Bib.Pop. Juan Bautista Alberdi,Buenos Aires 1016 0,,6708,2323.0,496400.0,bibliotecaopendoor@hotmail.com,,,-34.488817,-59.076517,Exacta,CONABIP,1926-05-10,1257,2023
6505020,06,06505,,Biblioteca Popular,,Buenos Aires,Magdalena,Bartolomé Bavio (General Mansilla),Bib.Pop. Edmundo Girardengo,San Julián 0 P.B.,,1911,221.0,4911892.0,bpegirardengo@gmail.com,,,-35.088249,-57.75248,Exacta,CONABIP,2008-04-07,4219,2023
6511020,06,06511,,Biblioteca Popular,,Buenos Aires,Maipu,Maipú,Bib.Pop.Mun. Juan José Elizondo,Belgrano 395,,7160,2268.0,421180.0,,,,-36.859767,-57.8803,Exacta,CONABIP,1966-07-09,3351,2023
6515010,06,06515,,Biblioteca Popular,,Buenos Aires,Malvinas Argentinas,Grand Bourg,Bib.Pop. William C.Morris,El Callao e/Soler y O`Brien,,1615,2320.0,411020.0,bibwcm@yahoo.com.ar,,,-34.491083,-58.722817,Exacta,CONABIP,1975-04-01,2931,2023
6515010,06,06515,,Biblioteca Popular,,Buenos Aires,Malvinas Argentinas,Grand Bourg,Bib. Pop. El Cruce de Papel,Alfredo Palacios 98,,1615,2320.0,436819.0,,,,-34.488933,-58.740483,Exacta,CONABIP,2007-06-02,4262,2023
6515010,06,06515,,Biblioteca Popular,,Buenos Aires,Malvinas Argentinas,Ingeniero Pablo Nogues,Bib.Pop. Pablo Nogués,25 de Febrero y Gregoria Matorres 0,,1613,2320.0,410188.0,monbe3@hotmail.com,,,-34.478569,-58.705723,Exacta,CONABIP,1998-06-13,3668,2023
6515010,06,06515,,Biblioteca Popular,,Buenos Aires,Malvinas Argentinas,Los Polvorines,Bib.Pop. de los Polvorines,Av.Pte.Perón 2992,,1613,11.0,46635195.0,bibliotecapolvorines@gmail.com,,,-34.502022,-58.690502,Exacta,CONABIP,1998-11-05,3785,2023
6515010,06,06515,,Biblioteca Popular,,Buenos Aires,Malvinas Argentinas,Tortuguitas,La esperanza del Callao y Biblioteca Popular,Colombia 2119,,1667,2320.0,621053.0,,,,-34.466233,-58.736283,Exacta,CONABIP,1980-01-01,4151,2023
6518020,06,06518,,Biblioteca Popular,,Buenos Aires,Mar Chiquita,General Pirán,Bib.Pop. José Ma. Viglietti,Mariano Moreno 135,,B7172AYC,2265.0,491040.0,bibliotecadepiran@yahoo.com.ar,,,-37.27615,-57.773895,Exacta,CONABIP,1977-10-05,4241,2023
6525020,06,06525,,Biblioteca Popular,,Buenos Aires,Marcos Paz,Marcos Paz,Bib.Pop. Gral. San Martín,Sarmiento 1901,,1727,2204.0,775070.0,bibliopop.gsm@gmail.com,,,-34.781083,-58.837617,Exacta,CONABIP,1936-09-12,1998,2023
6532020,06,06532,,Biblioteca Popular,,Buenos Aires,Mercedes,Mercedes,Bib.Pop. D.F.Sarmiento,Av.Mitre (29) 674,,6600,2324.0,432620.0,biblsarmiento_mercedes@hotmail.com,,,-34.6492,-59.4315,Exacta,CONABIP,,194,2023
6028010,06,06028,,Biblioteca Popular,,Buenos Aires,Merlo,Libertad,Bib.Pop. Malvinas argentinas,Avda. Eva Peron 1317,,1716,229.0,4973679.0,,,,-34.689333,-58.690417,Exacta,CONABIP,1986-04-02,3243,2023
6539010,06,06539,,Biblioteca Popular,,Buenos Aires,Merlo,Mariano Acosta,Bib.Pop. Perito Moreno,Viedma 950,,1723,220.0,4994773.0,,,,-34.710483,-58.789767,Exacta,CONABIP,1991-01-24,3303,2023
6539010,06,06539,,Biblioteca Popular,,Buenos Aires,Merlo,Merlo,Bib.Pop. Manuel Galvez,Dean Funes 2507,,1722,220.0,4892559.0,,,,-34.679883,-58.769117,Exacta,CONABIP,1980-01-01,4199,2023
6539010,06,06539,,Biblioteca Popular,,Buenos Aires,Merlo,Merlo Norte,Bib.Pop. Génesis,Bertole 1627,,1722,220.0,4800236.0,,,,-34.650391,-58.711605,Exacta,CONABIP,1980-01-01,3949,2023
6539010,06,06539,,Biblioteca Popular,,Buenos Aires,Merlo,San Antonio de Padua,Bib. Pop. Ricardo Guiraldes,Volta 1374,,1718,2204.0,862313.0,info@bibliotecaguiraldes.com.ar,,,-34.667217,-58.698624,Exacta,CONABIP,2000-10-20,3999,2023
6547010,06,06547,,Biblioteca Popular,,Buenos Aires,Monte,Abbott,Asociación Cooperadora de la Biblioteca José Manuel Estrada de Abbott,San Martín,,7228,,,,,,-35.281133,-58.804367,Exacta,CONABIP,1980-01-01,3805,2023
6547020,06,06547,,Biblioteca Popular,,Buenos Aires,Monte,San Miguel del Monte,Bib.Pop.Mun. Manuel Belgrano,Giagnacovo 1075,,7220,2271.0,407129.0,bp_manuelbelgrano@hotmail.com,,,-35.437767,-58.806705,Exacta,CONABIP,1950-09-20,2662,2023
6553020,06,06553,,Biblioteca Popular,,Buenos Aires,Monte Hermoso,Monte Hermoso,Bib.Pop. Monte Hermoso,Av.Bahía Blanca y Patagonia,,8153,,,,,,-38.985333,-61.289,Exacta,CONABIP,1980-01-01,3315,2023
6560010,06,06560,,Biblioteca Popular,,Buenos Aires,Moreno,Cuartel V,Bib.Pop. Vicky,Gral. Mosconi 5635,,1744,237.0,4274416.0,,,,-34.63401,-58.791382,Exacta,CONABIP,2000-09-15,4139,2023
6560010,06,06560,,Biblioteca Popular,,Buenos Aires,Moreno,Francisco Alvarez,Bib.Pop. Vicenta Castro Cambón,A. Jonte 989,,1746,237.0,4872483.0,bibliotecambon@live.com.ar,,,-34.6348,-58.856083,Exacta,CONABIP,1954-01-24,2673,2023
6560010,06,06560,,Biblioteca Popular,,Buenos Aires,Moreno,Francisco Alvarez,Bib.Pop.Casa.Cult. Barrio Parque San Carlos,Gualeguaychú (e/Hipócrates y Coronel Suárez) 0,,1746,237.0,4874573.0,,,,-34.648317,-58.8751,Exacta,CONABIP,2000-09-17,3944,2023
6560010,06,06560,,Biblioteca Popular,,Buenos Aires,Moreno,Francisco Alvarez,Bib.Pop. Almafuerte de Barrio Guemes,Colonia y Baradero 0,,1746,11.0,1535081627.0,bibliotkalmafuerte@gmail.com,,,-34.6332,-58.878299,Exacta,CONABIP,2008-06-20,4336,2023
6560010,06,06560,,Biblioteca Popular,,Buenos Aires,Moreno,La Reja,Asoc.Civ.Bib.Pop. El Cobijo,Arenales y Ambrosetti 4521,,1744,11.0,1554738848.0,,,,-34.6775,-58.837917,Exacta,CONABIP,2000-04-25,3886,2023
6560010,06,06560,,Biblioteca Popular,,Buenos Aires,Moreno,La Reja,Bib. Pop. San José Obrero,Salvador Rueda 2070,,1744,2374.0,830252.0,bibliotecasanjoseobrero@gmail.com,,,-34.611383,-58.8427,Exacta,CONABIP,1980-01-01,4134,2023
6560010,06,06560,,Biblioteca Popular,,Buenos Aires,Moreno,Moreno,Bib.Pop. Mariano Moreno,Bv. Alcorta 2850,,1744,237.0,4663124.0,biblioteca@cbmm.com.ar,,,-34.650436,-58.791084,Exacta,CONABIP,1916-08-30,2243,2023
6560010,06,06560,,Biblioteca Popular,,Buenos Aires,Moreno,Moreno,Bib.Pop. Horacio Quiroga,Paraguay 5544,,1744,2374.0,682147.0,bphoracioquiroga@hotmail.com,,,-34.603633,-58.766967,Exacta,CONABIP,1980-01-01,3248,2023
6560010,06,06560,,Biblioteca Popular,,Buenos Aires,Moreno,Moreno,Bib.Pop. El centro y los chicos,Guido Spano 925,,1744,,,,,,-34.671217,-58.81585,Exacta,CONABIP,1980-01-01,4003,2023
6560010,06,06560,,Biblioteca Popular,,Buenos Aires,Moreno,Paso del Rey,Bib.Pop. Ciudad de Paso del Rey,25 de Mayo 23,,1742,2374.0,622255.0,bibliopop.pasodelrey@hotmail.es,,,-34.649783,-58.753883,Exacta,CONABIP,1958-08-06,2804,2023
6560010,06,06560,,Biblioteca Popular,,Buenos Aires,Moreno,Paso del Rey,Sociedad de fomento San Pedro y Biblioteca Popular OLEGARIO VICTOR ANDRADE,Dastugue 3570,,1742,237.0,4635408.0,,,,-34.648233,-58.747367,Exacta,CONABIP,1958-06-20,4106,2023
6560010,06,06560,,Biblioteca Popular,,Buenos Aires,Moron,Castelar,Bib.Pop. 9 de Julio,Martín Irigoyen 520,,1712,11.0,44895043.0,,,,-34.653217,-58.64105,Exacta,CONABIP,1929-07-21,1391,2023
6560010,06,06560,,Biblioteca Popular,,Buenos Aires,Moron,El Palomar,Bib.Pop. Juan Manuel Giufra,Madariaga 574,,1684,11.0,47588035.0,bibliogiuffra@hotmail.com,,,-34.606583,-58.5954,Exacta,CONABIP,1945-02-04,2324,2023
6560010,06,06560,,Biblioteca Popular,,Buenos Aires,Moron,El Palomar,Bib. Pop. Arturo Jauretche de El Palomar,Crecencia Acosta 971,,1706,11.0,21974274.0,bibliotecajauretche@yahoo.com.ar,,,-34.627683,-58.605483,Exacta,CONABIP,2001-06-30,4040,2023
6560010,06,06560,,Biblioteca Popular,,Buenos Aires,Moron,Haedo,Bib.Pop.Pub. Rosario Vera Peñaloza,Tacuarí 674,,B1706BDJ,11.0,44432597.0,,,,-34.646917,-58.586433,Exacta,CONABIP,1971-07-29,3049,2023
6560010,06,06560,,Biblioteca Popular,,Buenos Aires,Moron,Haedo,Bib.Pop. Parlante Sur,Paris 532,,1706,11.0,44433156.0,biblioparlantesur@hotmail.com,,,-34.640433,-58.6015,Exacta,CONABIP,1999-12-02,4274,2023
6568010,06,06568,,Biblioteca Popular,,Buenos Aires,Moron,Morón,Bib.Pop. José Hernández,Gob.Arana 3817,,1708,11.0,46974509.0,,,,-34.690333,-58.63925,Exacta,CONABIP,1964-03-22,3012,2023
6568010,06,06568,,Biblioteca Popular,,Buenos Aires,Moron,Morón,Asoc.y Bib.Pop. Juan Salvador Gaviota,J.M.Casullo 625 1,,1708,11.0,46278107.0,biblioteca_jsgaviota@hotmail.com,,,-34.65495,-58.6243,Exacta,CONABIP,1997-01-27,3901,2023
6574010,06,06574,,Biblioteca Popular,,Buenos Aires,Navarro,José Juan Almeyra,Bib. Pop. y Ctro. Cult. Almafuerte,San Francisco 305,,6603,2272.0,492861.0,biblioalma@yahoo.com.ar,,,-34.923183,-59.5426,Exacta,CONABIP,1980-01-01,3885,2023
6574030,06,06574,,Biblioteca Popular,,Buenos Aires,Navarro,Navarro,Bib.Pop.Pub. José R. de Erenchun,Calle 109 (Sarmiento Nº 67 0,,6605,2272.0,430660.0,biberenchu@copesnet.com.ar,,,-35.005767,-59.27755,Exacta,CONABIP,1907-04-14,195,2023
6581030,06,06581,,Biblioteca Popular,,Buenos Aires,Necochea,Juan N. Fernandez,Bib.Pop.Pub. José Hernández,Calle 35 1367,,7011,2264.0,498645.0,,,,-38.0067,-59.263033,Exacta,CONABIP,1980-01-01,2277,2023
6581040,06,06581,,Biblioteca Popular,,Buenos Aires,Necochea,Necochea,Bib.Pop. Andrés Ferreyra,Calle 54 Nº 3062 0,,B7630CSR,2262.0,424806.0,,,,-38.55745,-58.7389,Exacta,CONABIP,1980-01-01,197,2023
6581040,06,06581,,Biblioteca Popular,,Buenos Aires,Necochea,Necochea,Bib.Pop. José M. Estrada,Calle 57 Nº 2646,,7630,2262.0,422113.0,joseestrada@arnet.com.ar.,,,-38.553283,-58.738783,Exacta,CONABIP,1926-04-03,1309,2023
6581040,06,06581,,Biblioteca Popular,,Buenos Aires,Necochea,Necochea,Bib.Pop. D.F.Sarmiento,Avda. 55 585,,7630,2262.0,424416.0,,,,-38.552533,-58.733883,Exacta,CONABIP,1932-09-11,1710,2023
6581040,06,06581,,Biblioteca Popular,,Buenos Aires,Necochea,Quequén,Bib. Pop. de Quequén,519 2245,,7631,2262.0,451221.0,biblioquequen@hotmail.com,,,-38.557233,-58.715067,Exacta,CONABIP,1980-01-01,3552,2023
6595060,06,06595,,Biblioteca Popular,,Buenos Aires,Olavarria,Hinojo,Bib.Pop. D.F.Sarmiento,Av.Mitre s/n,,7318,,,,,,-36.863117,-60.163167,Exacta,CONABIP,1980-01-01,135,2023
6595070,06,06595,,Biblioteca Popular,,Buenos Aires,Olavarria,Olavarría,Bib.Pop. Ferroviaria M.Gandhi,Bolivar 3031 0,,7400,2284.0,420893.0,bibliotecaferroviaria@hotmail.com,,,-36.897967,-60.32395,Exacta,CONABIP,1904-06-20,201,2023
6595070,06,06595,,Biblioteca Popular,,Buenos Aires,Olavarria,Olavarría,Bib.Pop. Armando Collinet,Alsina 2659,,7400,2284.0,418654.0,,,,-36.893333,-60.325333,Exacta,CONABIP,1909-07-25,202,2023
6595070,06,06595,,Biblioteca Popular,,Buenos Aires,Olavarria,Olavarría,Bib. Pop. Héctor N. Amoroso,Dean Funes 3329,,7400,2284.0,426518.0,biblioteca_amoroso@yahoo.com.ar,,,-36.8977,-60.308967,Exacta,CONABIP,1996-02-01,3652,2023
6595070,06,06595,,Biblioteca Popular,,Buenos Aires,Olavarria,Olavarría,Bib.Pop. Independencia,Tacuarí 2150,,7400,2284.0,456551.0,biblioindependencia@hotmail.com,,,-36.888683,-60.339583,Exacta,CONABIP,1998-11-25,3811,2023
6595070,06,06595,,Biblioteca Popular,,Buenos Aires,Olavarria,Olavarría,Bib.Pop. 1 de Mayo,Dorrego 2557,,7400,2284.0,416422.0,,,,-36.888733,-60.325333,Exacta,CONABIP,1980-01-01,3889,2023
6595070,06,06595,,Biblioteca Popular,,Buenos Aires,Olavarria,Olavarría,Bib.Pop. Coty Laborde,Coronel Suárez 1795,,7400,2284.0,416722.0,,,,-36.888317,-60.332433,Exacta,CONABIP,1980-01-01,4176,2023
6595070,06,06595,,Biblioteca Popular,,Buenos Aires,Olavarria,Olavarría,Bib.Pop. Vecinal Don Helios Eseverri,Balcarce 3620,,7400,2284.0,760756.0,,,,-36.904608,-60.322316,Exacta,CONABIP,2010-09-24,4371,2023
6595100,06,06595,,Biblioteca Popular,,Buenos Aires,Olavarria,Sierra Chica,Bib.Pop. Sierra Chica,Av.de los Fundadores esq. Vezza D´Oglio,,7401,,,,,,-36.84565,-60.241683,Exacta,CONABIP,1999-12-13,3939,2023
6595110,06,06595,,Biblioteca Popular,,Buenos Aires,Olavarria,Sierras Bayas,Bib. Pop. Sierras Bayas,Rivadavia 2190,,7403,2284.0,492123.0,bibliotecasb@yahoo.com.ar,,,-36.930038,-60.161044,Exacta,CONABIP,1948-04-25,2371,2023
6595070,06,06595,,Biblioteca Popular,,Buenos Aires,Olavarria,,BP Del Otro Lado del Arbol,Rivadavia 4959,,xxxx,2284.0,478817.0,delotroladodelarbolenolavarria@gmail.com,,,-36.879523,-60.304617,Exacta,CONABIP,2021-08-23,4384,2023
6602030,06,06602,,Biblioteca Popular,,Buenos Aires,Patagones,Carmen de Patagones,Bib.Pop. Cervantes,DR. Baraja 177 0,,8504,2920.0,464634.0,bibpopcervantes@yahoo.com.ar,,,-40.801917,-62.984967,Exacta,CONABIP,1927-10-12,1246,2023
6609030,06,06609,,Biblioteca Popular,,Buenos Aires,Pehuajo,Francisco Madero,Bib.Pop. Nuestra Señora de Luján,H.Irigóyen 151 0,,6472,2396.0,497006.0,bibliotecamadero@live.com.ar,,,-35.853907,-62.067288,Exacta,CONABIP,1952-06-29,2646,2023
6609040,06,06609,,Biblioteca Popular,,Buenos Aires,Pehuajo,Juan J.Paso,Bib.Pop. D.F.Sarmiento,C.Pellegrini 151,,6474,2396.0,498200.0,,,,-35.856628,-62.29797,Exacta,CONABIP,1931-12-03,1633,2023
6609080,06,06609,,Biblioteca Popular,,Buenos Aires,Pehuajo,Pehuajó,Bib.Pop. Bernardino Rivadavia,A.del Valle 567,,6450,2396.0,472225.0,bibrivadavia@gmail.com,,,-35.8094,-61.897567,Exacta,CONABIP,1910-06-11,215,2023
6609080,06,06609,,Biblioteca Popular,,Buenos Aires,Pehuajo,Pehuajó,Bib.Pop. Dr. Dardo Rocha,Chassaing 214,,6450,2396.0,476966.0,biblioteca3255@yahoo.com.ar,,,-35.81665,-61.900083,Exacta,CONABIP,1993-08-12,3255,2023
6616030,06,06616,,Biblioteca Popular,,Buenos Aires,Pellegrini,Pellegrini,Bib.Pop. Bartolomé Mitre,Moreno 352,,B6346BYH,2392.0,498639.0,,,,-36.26795,-63.166333,Exacta,CONABIP,1914-10-11,2073,2023
6623070,06,06623,,Biblioteca Popular,,Buenos Aires,Pergamino,El Socorro,Bib.Pop. Melchor Echague,Adolfo Bulrich 844,,B2715AFD,2477.0,495234.0,,,,-33.663317,-60.70805,Exacta,CONABIP,1933-07-09,1977,2023
6623070,06,06623,,Biblioteca Popular,,Buenos Aires,Pergamino,Manuel Ocampo,Bib.Pop. Almafuerte,Bv.J.León Ocampo s/n y Dr.Menendez 0,,2713,2477.0,494289.0,bibliomo@hotmail.com,,,-33.76667,-60.650002,Exacta,CONABIP,1926-12-01,1743,2023
6623100,06,06623,,Biblioteca Popular,,Buenos Aires,Pergamino,Pergamino,Bib.Pop.Pub.Mun. Dr. Menéndez,Bv. Colón 687,,2700,2477.0,417327.0,bibliotecamenendez@yahoo.com.ar,,,-33.895567,-60.5763,Exacta,CONABIP,1900-10-19,213,2023
6623100,06,06623,,Biblioteca Popular,,Buenos Aires,Pergamino,Pergamino,Bib.Pop. José Manuel Estrada,Estrada 1225,,2700,2477.0,443378.0,,,,-33.89815,-60.58035,Exacta,CONABIP,1929-09-11,1452,2023
6638040,06,06638,,Biblioteca Popular,,Buenos Aires,Pilar,Manuel Alberti,Bib.Pop. P.U.M.A.,Santa Rita 1076,,1667,2320.0,558938.0,bibliopuma@yahoo.com.ar,,,-34.4583,-58.776417,Exacta,CONABIP,2002-03-29,3966,2023
6638040,06,06638,,Biblioteca Popular,,Buenos Aires,Pilar,Manzanares,Bib. Pop. Javier Velázquez,Río NIlo 554,,1629,230.0,4490429.0,marianoadot6@yahoo.com.ar,,,-34.454083,-58.993117,Exacta,CONABIP,2007-05-15,4250,2023
6638040,06,06638,,Biblioteca Popular,,Buenos Aires,Pilar,Manzanares,Bib.Pop. y Casa de la Cult. Estación Manzanares,Manzotti s/n,,1629,,,bibliotecamanzanares@hotmail.com,,,-34.451793,-59.006944,Exacta,CONABIP,2001-09-05,4366,2023
6638040,06,06638,,Biblioteca Popular,,Buenos Aires,Pilar,Pilar,Bib.Pop. Bartolomé Mitre,Belgrano 553 0,,1629,230.0,4431818.0,bibliotecapilar@yahoo.com.ar,,,-34.45765,-58.914033,Exacta,CONABIP,1922-03-12,898,2023
6638040,06,06638,,Biblioteca Popular,,Buenos Aires,Pilar,Pilar,Bib.Pop. Palabras del Alma,Corbeta Céfiro 2071,,1629,230.0,4429516.0,biblioteca.palabrasdelalma@gmail.com,,,-34.477362,-58.916942,Exacta,CONABIP,2008-05-18,4344,2023
6638040,06,06638,,Biblioteca Popular,,Buenos Aires,Pilar,Presidente Derqui,Bib.Pop. Presidente Derqui,Dorrego 543,,1635,2322.0,487202.0,,,,-34.49315,-58.836,Exacta,CONABIP,1978-01-03,2984,2023
6644010,06,06644,,Biblioteca Popular,,Buenos Aires,Pinamar,Ostende,Bib.Pop. de Ostende,España  (y Avda. Central) 348,,7167,2254.0,400522.0,,,,-37.124517,-56.8892,Exacta,CONABIP,1980-01-01,3912,2023
6644010,06,06644,,Biblioteca Popular,,Buenos Aires,Pinamar,Pinamar,Bib.Pop. Manuel Belgrano,de las Medusas 1230,,A7167ZAA,2254.0,485555.0,biblioteca@telpin.com.ar,,,-37.108667,-56.866983,Exacta,CONABIP,1970-06-20,2887,2023
6651020,06,06651,,Biblioteca Popular,,Buenos Aires,Puan,Bordenave,Casa de la Cult. y Bib.Pop. José Hernández,España 0,,8187,2924.0,496051.0,casadelacultura2002@yahoo.com.ar,,,-37.806233,-63.038583,Exacta,CONABIP,1990-04-09,3968,2023
6651030,06,06651,,Biblioteca Popular,,Buenos Aires,Puan,Darregueira,Bib.Pop. Sur,Urquiza 255,,8183,2923.0,525779.0,bibliotecapopularsur@yahoo.com.ar,,,-37.692933,-63.159067,Exacta,CONABIP,1988-01-08,4222,2023
6651080,06,06651,,Biblioteca Popular,,Buenos Aires,Puan,Puán,Bib.Pop. Bernardino Rivadavia,Humberto I 668,,8180,2923.0,498115.0,,,,-37.548567,-62.766467,Exacta,CONABIP,1930-01-22,2158,2023
6655050,06,06655,,Biblioteca Popular,,Buenos Aires,Punta Indio,Verónica,Bib.Pop. Mariano Moreno,23 1523,,1917,2221.0,481116.0,,,,-35.385433,-57.339133,Exacta,CONABIP,1941-07-19,2209,2023
6658010,06,06658,,Biblioteca Popular,,Buenos Aires,Quilmes,Bernal,Bib.Pop. José Manuel Estrada,Espora 105 bis 0,,B1876AWA,11.0,42514849.0,,,,-34.706567,-58.28,Exacta,CONABIP,1980-01-01,98,2023
6658010,06,06658,,Biblioteca Popular,,Buenos Aires,Quilmes,Bernal,Mariano Moreno,Belgrano 450 0,,1876,11.0,42594740.0,,,,-34.710867,-58.28345,Exacta,CONABIP,1932-08-21,1988,2023
6091010,06,06091,,Biblioteca Popular,,Buenos Aires,Quilmes,Bernal,Bib.Pop. Fundaterra,Hipolito Vieytes y Otamendi Bis 0,,1876,11.0,42758106.0,bibliotecafundaterra@yahoo.com.ar,,,-34.772633,-58.2641,Exacta,CONABIP,1980-01-01,3984,2023
6658010,06,06658,,Biblioteca Popular,,Buenos Aires,Quilmes,Don Bosco,Bib.Pop. de Don Bosco,Ciudadela 2158,,1876,11.0,42516658.0,bibbosco@hotmail.com,,,-34.7,-58.2941,Exacta,CONABIP,1972-07-28,2090,2023
6658010,06,06658,,Biblioteca Popular,,Buenos Aires,Quilmes,Ezpeleta,Bib.Pop. de Ezpeleta Alfonsina Storni,Lavalle 5088,,1882,11.0,42161533.0,bastorni@yahoo.com.ar,,,-34.749983,-58.235183,Exacta,CONABIP,1998-08-17,3752,2023
6658010,06,06658,,Biblioteca Popular,,Buenos Aires,Quilmes,Ezpeleta,Bib.Pop. Atahualpas,Caracas y Colombia,,1882,,,,,,-34.75085,-58.24335,Exacta,CONABIP,1980-01-01,3878,2023
6658010,06,06658,,Biblioteca Popular,,Buenos Aires,Quilmes,Quilmes,Bib.Pop. Pedro Goyena,San Luis 948,,B1878CNT,11.0,42248162.0,bibliotecapopularpedrogoyena@yahoo.com.ar,,,-34.723083,-58.274233,Exacta,CONABIP,1959-08-15,2788,2023
6658010,06,06658,,Biblioteca Popular,,Buenos Aires,Quilmes,Quilmes,Bib. Pop. Los Cooperarios,Lafinur 2816,,1879,11.0,42507783.0,bibliotecapopularcooperarios@yahoo.com.ar,,,-34.753283,-58.27985,Exacta,CONABIP,2000-05-02,3969,2023
6658010,06,06658,,Biblioteca Popular,,Buenos Aires,Quilmes,Quilmes,Asoc.y Bib.Pop. Dr. Juan Martín Vilaseca,Condarco 1415,,1878,11.0,61888151.0,bibliotecajmvilaseca@gmail.com,,,-34.733933,-58.2767,Exacta,CONABIP,1980-01-01,4156,2023
6658010,06,06658,,Biblioteca Popular,,Buenos Aires,Quilmes,Quilmes,Bib.Pop. del Río de Quilmes,Las Rosas 1665,,1878,11.0,42591773.0,delriobiblioteca@yahoo.com.ar,,,-34.707617,-58.229683,Exacta,CONABIP,2011-12-07,4311,2023
6028010,06,06028,,Biblioteca Popular,,Buenos Aires,Quilmes,San Francisco Solano,Bib.Pop. Juan Bautista Alberdi,Calle 843 2466,,1881,11.0,42710135.0,,,,-34.777883,-58.309783,Exacta,CONABIP,1984-09-28,3040,2023
6028010,06,06028,,Biblioteca Popular,,Buenos Aires,Quilmes,San Francisco Solano,Bib.Pop. Joan Rico de Bahia,Calle 836 1838,,1881,11.0,42121028.0,,,,-34.77025,-58.306867,Exacta,CONABIP,1994-04-23,3585,2023
6665010,06,06665,,Biblioteca Popular,,Buenos Aires,Ramallo,El Paraíso,Bib.Pop. Rincón de luz,Ruta 1001 Cuartel 12,,B2916AAA,3407.0,491016.0,,,,-33.568617,-59.978783,Exacta,CONABIP,1999-05-25,3793,2023
6665040,06,06665,,Biblioteca Popular,,Buenos Aires,Ramallo,Ramallo,Bib.Pop. José Manuel Estrada,Av.Mitre 724 0,,2915,3407.0,422557.0,,,,-33.48455,-60.002067,Exacta,CONABIP,1951-08-11,2554,2023
6665050,06,06665,,Biblioteca Popular,,Buenos Aires,Ramallo,Villa General Savio,Bib.Pop. Carlos Angel González,Simón Sanchez 666,,2912,336.0,4463409.0,,,,-33.4367,-60.14535,Exacta,CONABIP,1999-06-26,3794,2023
6665060,06,06665,,Biblioteca Popular,,Buenos Aires,Ramallo,Villa Ramallo,Bib.Pop. Fortunato Zampa,Primera Junta 52,,2914,3407.0,489051.0,bibliozampa@hotmail.com,,,-33.499633,-60.0687,Exacta,CONABIP,1995-10-25,3157,2023
6672010,06,06672,,Biblioteca Popular,,Buenos Aires,Rauch,Rauch,Bib.Pop. Guido y Spano,Av.San Martín 258 0,,B7203BPP,2297.0,440290.0,bibliotecapopulargsrauch@gmail.com,,,-36.777717,-59.09225,Exacta,CONABIP,1920-03-20,221,2023
6672010,06,06672,,Biblioteca Popular,,Buenos Aires,Rauch,Rauch,Ropero Comunitario y Bib. Pop. Eva Perón,Pellegrini 37,,7203,2297.0,440168.0,bibliotecaevaperon.rauch@yahoo.com.ar,,,-36.7718,-59.08605,Exacta,CONABIP,2001-02-20,4205,2023
6679010,06,06679,,Biblioteca Popular,,Buenos Aires,Rivadavia,América,Bib.Mun.Pop. Dr. Tomás Jofre,Mitre 135,,6237,2337.0,404290.0,bibliomunicipal.rivadavia@gmail.com,,,-35.487117,-62.972283,Exacta,CONABIP,1980-01-01,3697,2023
6686060,06,06686,,Biblioteca Popular,,Buenos Aires,Rojas,Rojas,Bib.Pop. Juan Bautista Alberdi de Rojas,General Frias 275,,2705,2475.0,464659.0,,,,-34.2012,-60.733417,Exacta,CONABIP,1932-02-28,3829,2023
6693020,06,06693,,Biblioteca Popular,,Buenos Aires,Roque Perez,Roque Perez,Bib. Pop. Esteban Echeverría,L. N. Alem 1245,,B7245ALO,2227.0,492218.0,giseafrica@yahoo.com.ar,,,-35.399547,-59.333618,Exacta,CONABIP,1946-06-29,2341,2023
6700010,06,06700,,Biblioteca Popular,,Buenos Aires,Saavedra,Arroyo Corto,Bib.Pop. Juan Bautista Alberdi,Biga y Gossetti 0,,8172,0.0,0.0,,,,-37.509883,-62.314467,Exacta,CONABIP,1942-11-22,262,2023
6700060,06,06700,,Biblioteca Popular,,Buenos Aires,Saavedra,Pigüe,Bib.Pop. D.F.Sarmiento,Av.Mitre 170 0,,8170,2923.0,476300.0,bib.sarmiento.pigue@gmail.com,,,-37.605117,-62.403933,Exacta,CONABIP,1914-01-03,210,2023
6700070,06,06700,,Biblioteca Popular,,Buenos Aires,Saavedra,Saavedra,Bib.Pop. Juan Bautista Alberdi,25 de Mayo 139,,8174,2923.0,497053.0,biblioteca_jbalberdi@yahoo.com.ar,,,-37.768633,-62.348083,Exacta,CONABIP,1916-05-15,236,2023
6707060,06,06707,,Biblioteca Popular,,Buenos Aires,Saladillo,Saladillo,Bib.Pop.Mun. Bartolomé Mitre,Rivadavia 3402,,7260,2344.0,453038.0,,,,-35.640933,-59.782567,Exacta,CONABIP,1980-01-01,2428,2023
6714010,06,06714,,Biblioteca Popular,,Buenos Aires,Salto,Arroyo Dulce,Bib.Pop. Renacer,Avda. Gowland 0,,2743,2477.0,491182.0,renacer465adulce@hotmail.com.ar,,,-34.103117,-60.410717,Exacta,CONABIP,1980-01-01,4127,2023
6714060,06,06714,,Biblioteca Popular,,Buenos Aires,Salto,Salto,Bib.Pop. Dr. Tristán G. Lobos,Av.B.Mitre y San Martín 0,,B2741AVJ,2474.0,431411.0,,,,-34.293733,-60.25365,Exacta,CONABIP,1901-09-14,233,2023
6728040,06,06728,,Biblioteca Popular,,Buenos Aires,San Andres De Giles,San Andrés de Giles,Bib.Pop. Alberdi,Rivadavia 658,,B6720AIN,2325.0,440319.0,,,,-34.443367,-59.4473,Exacta,CONABIP,1980-01-01,232,2023
6735020,06,06735,,Biblioteca Popular,,Buenos Aires,San Antonio De Areco,San Antonio de Areco,Bib.Pop. Belgrano,Arellano 115,,2760,2326.0,452389.0,rot14@hotmail.com,,,-34.2433,-59.47315,Exacta,CONABIP,2006-11-06,230,2023
6735020,06,06735,,Biblioteca Popular,,Buenos Aires,San Antonio De Areco,San Antonio de Areco,Bib.Pop. Mariano Moreno,Alvear 322,,2760,2326.0,452225.0,bmarianomoreno@yahoo.com.ar,,,-34.248533,-59.473517,Exacta,CONABIP,1957-12-01,2815,2023
6742030,06,06742,,Biblioteca Popular,,Buenos Aires,San Cayetano,San Cayetano,Bib.Pop. Bernardino Rivadavia,Belgrano 266,,7521,2983.0,470227.0,,,,-38.345267,-59.612517,Exacta,CONABIP,1940-07-28,2115,2023
6742030,06,06742,,Biblioteca Popular,,Buenos Aires,San Cayetano,San Cayetano,Bib.Pop. D.F.Sarmiento,9 de Julio 268,,7521,2983.0,470252.0,,,,-38.34525,-59.610317,Exacta,CONABIP,1980-01-01,3403,2023
6749010,06,06749,,Biblioteca Popular,,Buenos Aires,San Fernando,Islas de San Fernando,Bib.Pop. Delta del Paraná (Bibliolancha,Río Carabelas (Muelle EGB Nro 10) 0,,AB1647VA,11.0,47282843.0,,,,-34.443062,-58.557964,Exacta,CONABIP,1997-11-14,3659,2023
6749010,06,06749,,Biblioteca Popular,,Buenos Aires,San Fernando,San Fernando,Bib.Pop. Juan N. Madero,Constitución 622 0,,1646,11.0,47456093.0,noticiasmadero@gmail.com,,,-34.438293,-58.560268,Exacta,CONABIP,,231,2023
6749010,06,06749,,Biblioteca Popular,,Buenos Aires,San Fernando,San Fernando,Bib.Pop.y Soc.Fom. Santa Genoveva,Arroyo Felicaria S/N 0,,1647,11.0,47281735.0,,,,-34.443062,-58.557964,Exacta,CONABIP,1980-01-01,3743,2023
6749010,06,06749,,Biblioteca Popular,,Buenos Aires,San Fernando,San Fernando,Bib. Pop. de San Fernando Leopoldo Murcho,Nuestra Señora de Aranzazu 10,,1646,11.0,47461837.0,,,,-34.448223,-58.5741,Exacta,CONABIP,1980-01-01,3790,2023
6749010,06,06749,,Biblioteca Popular,,Buenos Aires,San Fernando,Victoria,Bib.Pop. Rómulo S. Naón,Simón de Iriondo 1441,,1644,11.0,47252365.0,bpromulonaon@gmail.com,,,-34.454017,-58.54175,Exacta,CONABIP,1939-01-14,2022,2023
6749010,06,06749,,Biblioteca Popular,,Buenos Aires,San Fernando,Virreyes,Bib.Pop. Dra. Alicia Moreau de Justo,Avda. Avellaneda 3025,,1646,,,,,,-34.4569,-58.5649,Exacta,CONABIP,2000-10-10,4030,2023
6749010,06,06749,,Biblioteca Popular,,Buenos Aires,San Fernando,Virreyes,Bib.Pop. La Casa de las palabras,Quintana esq. Matheu,,1646,11.0,47142057.0,,,,-34.462467,-58.5743,Exacta,CONABIP,2001-11-16,4031,2023
6756010,06,06756,,Biblioteca Popular,,Buenos Aires,San Isidro,Beccar,Bib.Pop. Club de madres de B.Sauce,Padre Acevedo 88,,1643,15.0,20032758.0,,,,-34.464985,-58.547718,Exacta,CONABIP,1980-01-01,3060,2023
6756010,06,06756,,Biblioteca Popular,,Buenos Aires,San Isidro,Beccar,Bib.Pop.y Ctro. Cultural de Beccar,Roma esq. Posadas 1757,,1643,11.0,47230010.0,,,,-34.471533,-58.54695,Exacta,CONABIP,1982-05-23,4061,2023
6756010,06,06756,,Biblioteca Popular,,Buenos Aires,San Isidro,Beccar,Bib.Pop. Cava Joven,Neyer 2360,,1643,11.0,154160278.0,bpcavajoven@yahoo.com.ar,,,-34.474533,-58.5495,Exacta,CONABIP,1980-01-01,4188,2023
6756010,06,06756,,Biblioteca Popular,,Buenos Aires,San Isidro,Martinez,Bib.Pop. Bernardino Rivadavia,Aristóbulo del Valle 199,,B1640EPC,11.0,47929458.0,,,,-34.48645,-58.499883,Exacta,CONABIP,1913-07-28,192,2023
6756010,06,06756,,Biblioteca Popular,,Buenos Aires,San Isidro,San Isidro,Bib.Pop. Juan M. de Pueyrredón,9 de Julio 501,,1642,11.0,47321954.0,,,,-34.46815,-58.5104,Exacta,CONABIP,,223,2023
6756010,06,06756,,Biblioteca Popular,,Buenos Aires,San Isidro,San Isidro,Bib.Pop. de la Ribera,Del Barco Centenera 895,,1642,,,,,,-34.465867,-58.506933,Exacta,CONABIP,1980-01-01,3690,2023
6756010,06,06756,,Biblioteca Popular,,Buenos Aires,San Isidro,San Isidro,Bib.Pop. La Calabria Popular,Diego Palma 41,,1642,11.0,47324074.0,,,,-34.470867,-58.516733,Exacta,CONABIP,1980-01-01,3866,2023
6371010,06,06371,,Biblioteca Popular,,Buenos Aires,San Martin,General San Martín,Bib.Pop. Gral. San Martín,Matheu (56) 3728,,1650,11.0,47549175.0,bibliopopsanmartin2001@yahoo.com.ar,,,-34.575603,-58.539124,Exacta,CONABIP,1914-10-04,287,2023
6371010,06,06371,,Biblioteca Popular,,Buenos Aires,San Martin,General San Martín,Bib.Pub.Pop. Parlante Nuevo Ser,Ayacucho 2377,,1650,11.0,47542814.0,biblosnuevoser@hotmail.com,,,-34.5712589,-58.5375018,Exacta,CONABIP,1980-01-01,4175,2023
6371010,06,06371,,Biblioteca Popular,,Buenos Aires,San Martin,Jose Leon Suarez,La Carcova,Beltran 717,,1655,11.0,1133832901.0,,,,-34.516596,-58.569419,Exacta,CONABIP,2022-07-19,4393,2023
6371010,06,06371,,Biblioteca Popular,,Buenos Aires,San Martin,José León Suarez,Bib. Pop. Roberto Clemente,Av. Juan M. de Rosas 2485,,1655,11.0,47296696.0,,,,-34.529883,-58.574683,Exacta,CONABIP,1980-01-01,3628,2023
6371010,06,06371,,Biblioteca Popular,,Buenos Aires,San Martin,José León Suárez,Bib.Pop. Martín Fierro,Prof. Aguer 8628,,1655,11.0,1533396491.0,,,,-34.569534,-58.572224,Exacta,CONABIP,1980-01-01,3960,2023
6371010,06,06371,,Biblioteca Popular,,Buenos Aires,San Martin,San Andrés,Bib.Pop. Juan Bautista Alberdi,Ríobamba 2675,,1651,11.0,47559198.0,bpalberdi@gmail.com,,,-34.56819,-58.540092,Exacta,CONABIP,1927-02-23,1242,2023
6371010,06,06371,,Biblioteca Popular,,Buenos Aires,San Martin,San Andrés,Bib.Pop. Maestro Diego Pombo,Calle 70 Nº 3357-(Ex La Crujia 0,,1651,11.0,47542616.0,bibliopombo@gmail.com,,,-34.567245,-58.543719,Exacta,CONABIP,1964-11-15,2830,2023
6371010,06,06371,,Biblioteca Popular,,Buenos Aires,San Martin,San Andrés,Bib.Pop. Profesor Carlos Serraz,Nº 91- San Lorenzo 3169,,1651,11.0,47677109.0,humbertobielli@hotmail.com,,,-34.568085,-58.550121,Exacta,CONABIP,1980-01-01,4178,2023
6371010,06,06371,,Biblioteca Popular,,Buenos Aires,San Martin,Villa Ballester,Bib.Pop. Bernardino Rivadavia,Calle 122 3155,,1603,11.0,47678597.0,bibliotecarivadavia@yahoo.es,,,-34.551133,-58.561317,Exacta,CONABIP,1925-07-09,1178,2023
6371010,06,06371,,Biblioteca Popular,,Buenos Aires,San Martin,Villa Ballester,Bib.Pop. Maestra María Silva,Calle 39 (Ex María Silva) 234,,B1653EVC,11.0,47687377.0,chapmaris@hotmail.com,,,-34.549236,-58.558819,Exacta,CONABIP,1945-04-22,3473,2023
6371010,06,06371,,Biblioteca Popular,,Buenos Aires,San Martin,Villa Ballester,Bib.Esc.Pop. Fray Mocho,Lacroze 1,,1653,11.0,47383964.0,,,,-34.54427,-58.558985,Exacta,CONABIP,1980-01-01,3728,2023
6371010,06,06371,,Biblioteca Popular,,Buenos Aires,San Martin,Villa Ballester,Bib. Pop. Rioplatense,Colón 3772,,1653,11.0,47685186.0,bibliorioplatense@hotmail.com,,,-34.554933,-58.566883,Exacta,CONABIP,2000-08-19,3994,2023
6371010,06,06371,,Biblioteca Popular,,Buenos Aires,San Martin,Villa Humberto,Bib.Pop. y Cen.Cul Villa Humberto,Calle 115 (Lavalle) 1700,,1650,,,,,,-34.575951,-58.53727,Exacta,CONABIP,1980-01-01,4071,2023
6371010,06,06371,,Biblioteca Popular,,Buenos Aires,San Martin,Villa Zagala,Bib.Pop. José Murillo,Uriburu 3657,,1651,11.0,47523693.0,bibliomurillo@yahoo.com.ar,,,-34.546242,-58.527745,Exacta,CONABIP,1980-01-01,4073,2023
6760010,06,06760,,Biblioteca Popular,,Buenos Aires,San Miguel,Bella Vista,Bib.Pop. Hist. E. I. Munzon,Senador Morón 114,,1661,11.0,46682270.0,bphmunzon@hotmail.com,,,-34.55845,-58.66805,Exacta,CONABIP,1996-07-08,3644,2023
6760010,06,06760,,Biblioteca Popular,,Buenos Aires,San Miguel,Bella Vista,Bib.Pop.y C.Rec. Entre todos,Salta 2715,,1661,11.0,46667229.0,bibliotecaentretodos@yahoo.com.ar,,,-34.58095,-58.688017,Exacta,CONABIP,1995-08-26,3658,2023
6760010,06,06760,,Biblioteca Popular,,Buenos Aires,San Miguel,Muñiz,Bib.Pop. y Cen. Recr. El faro,Azcuenaga 3245,,1662,11.0,44555951.0,bpelfaro@gmail.com,,,-34.566367,-58.7173,Exacta,CONABIP,1980-01-01,4212,2023
6760010,06,06760,,Biblioteca Popular,,Buenos Aires,San Miguel,San Miguel,Bib.Pop.Mun. D.F.Sarmiento,Sarmiento 1503,,B1663HAL,11.0,46641840.0,bibliotecadfs@hotmail.com,,,-34.543667,-58.711983,Exacta,CONABIP,1913-06-13,125,2023
6763050,06,06763,,Biblioteca Popular,,Buenos Aires,San Nicolas,San Nicolás,Bib.Pop. Rafael de Aguiar,Ameghino 399,,2900,3364.0,426008.0,,,,-33.337583,-60.218,Exacta,CONABIP,1947-04-24,2691,2023
6763050,06,06763,,Biblioteca Popular,,Buenos Aires,San Nicolas,San Nicolás,Bib. Pop. Barrio del Carmen,Cnel. Boerr 709,,2900,3364.0,456290.0,bibdelcarmen709@gmail.com,,,-33.354267,-60.208967,Exacta,CONABIP,2000-07-07,4116,2023
6770050,06,06770,,Biblioteca Popular,,Buenos Aires,San Pedro,San Pedro,Bib.Pop. Rafael Obligado,Bartolomé Mitre 460 0,,2930,3329.0,426168.0,,,,-33.676433,-59.663983,Exacta,CONABIP,,226,2023
6770060,06,06770,,Biblioteca Popular,,Buenos Aires,San Pedro,Santa Lucía,Bib.Pop. D.F.Sarmiento,Sarmiento 405,,2935,0.0,0.0,bibliotecadfsarmiento@gmail.com,,,-33.881,-59.875017,Exacta,CONABIP,1927-04-28,1228,2023
6778020,06,06778,,Biblioteca Popular,,Buenos Aires,San Vicente,Alejandro Korn,Bib.Pop. D.F.Sarmiento,Independencia 16,,1864,2225.0,421300.0,bpsarkorn@yahoo.com.ar,,,-34.974533,-58.383217,Exacta,CONABIP,1923-04-08,997,2023
6778020,06,06778,,Biblioteca Popular,,Buenos Aires,San Vicente,San Vicente,Bib.Pop. Bartolomé Mitre,9 de Julio 24,,1865,225.0,481858.0,,,,-35.024717,-58.422783,Exacta,CONABIP,1936-05-03,1921,2023
6784020,06,06784,,Biblioteca Popular,,Buenos Aires,Suipacha,Suipacha,Bib.Pop.y Museo José Manuel Estrada,Balcarce 645 0,,6612,2324.0,481073.0,bibliotecaymuseo@yahoo.com.ar,,,-34.770217,-59.68945,Exacta,CONABIP,1930-09-26,1502,2023
6791030,06,06791,,Biblioteca Popular,,Buenos Aires,Tandil,Gardey,Bib.Pop. La Vieja Escuela,18 - Estacion de Ferrocarril 0,,7003,249.0,154327274.0,biblioviejaescuela@gmail.com,,,-37.280057,-59.362515,Exacta,CONABIP,2011-09-24,4367,2023
6791040,06,06791,,Biblioteca Popular,,Buenos Aires,Tandil,Maria Ignacia,Bib.Pop. José Ingenieros,Av.Uriburu 137,,7003,249.0,4491373.0,,,,-37.398583,-59.507517,Exacta,CONABIP,1932-06-01,1627,2023
6791050,06,06791,,Biblioteca Popular,,Buenos Aires,Tandil,Tandil,Bib.Pop. Juan Bautista Alberdi,Av.Colón 1341,,7000,249.0,4443670.0,bibliotecajbalberdi@yahoo.com.ar,,,-37.31535,-59.135833,Exacta,CONABIP,1916-05-26,238,2023
6791050,06,06791,,Biblioteca Popular,,Buenos Aires,Tandil,Tandil,Bib.Pop. Bernardino Rivadavia,San Martín 516,,7000,249.0,4449093.0,bpbrtandil@hotmail.com,,,-37.326767,-59.13775,Exacta,CONABIP,1908-06-21,240,2023
6791050,06,06791,,Biblioteca Popular,,Buenos Aires,Tandil,Tandil,Bib.Pop. Juan Antonio Salceda,Av.Colón 1479 0,,7000,249.0,4424332.0,,,,-37.3144,-59.1364,Exacta,CONABIP,1919-06-06,1194,2023
6791050,06,06791,,Biblioteca Popular,,Buenos Aires,Tandil,Tandil,Biblioteca Popular Sarmiento- Villa Italia- Tandil,Quintana 450,,7000,11.0,453372.0,bibliotecasarmiento1940@yahoo.com.ar,,,-37.2949,-59.158717,Exacta,CONABIP,1980-01-01,3001,2023
6791050,06,06791,,Biblioteca Popular,,Buenos Aires,Tandil,Tandil,Bib.Pop. Ernesto Valor,Barifi 185,,7000,249.0,4448283.0,biblioteca_valor@hotmail.com,,,-37.318817,-59.155883,Exacta,CONABIP,1978-09-20,3010,2023
6791050,06,06791,,Biblioteca Popular,,Buenos Aires,Tandil,Tandil,Bib.Pop. Juan L. Vatuone,Av.Rivadavia 371,,7000,249.0,4427383.0,tcdehesa@yahoo.com.ar,,,-37.326467,-59.146733,Exacta,CONABIP,1984-07-15,3075,2023
6791050,06,06791,,Biblioteca Popular,,Buenos Aires,Tandil,Tandil,Bib.Pop.Mun.Asoc.A. Sala abierta de lectura Inf-Juv,Chacabuco 729,,7000,249.0,4447044.0,,,,-37.32575,-59.140067,Exacta,CONABIP,1988-05-15,3302,2023
6791050,06,06791,,Biblioteca Popular,,Buenos Aires,Tandil,Tandil,Bib.Pop. Paula Albarracín de Sarmiento,Tucumán 562 y Saenz Peña 0,,7000,249.0,4453370.0,bpalbarracin@yahoo.com.ar,,,-37.292917,-59.156833,Exacta,CONABIP,1998-07-18,3802,2023
6791050,06,06791,,Biblioteca Popular,,Buenos Aires,Tandil,Tandil,Bib.Pop. Bepo Ghezzi,Formosa 888,,7000,249.0,4452002.0,bibliotecaghezzi@gmail.com,,,-37.318583,-59.163383,Exacta,CONABIP,1999-12-04,3906,2023
6791050,06,06791,,Biblioteca Popular,,Buenos Aires,Tandil,Tandil,Bib.Pop. Monseñor Luis J. Actis,Venezuela 366,,7000,249.0,4427769.0,,,,-37.322167,-59.112467,Exacta,CONABIP,1995-11-17,3945,2023
6791050,06,06791,,Biblioteca Popular,,Buenos Aires,Tandil,Tandil,Bib. Pop. de las Mujeres,Lobería 750,,7000,249.0,4423436.0,,,,-37.33625,-59.1201,Exacta,CONABIP,1980-01-01,4132,2023
6791050,06,06791,,Biblioteca Popular,,Buenos Aires,Tandil,Tandil,Bib. Pop. Martín Fierro,Casacuberta 581,,7000,249.0,4431147.0,,,,-37.295167,-59.123767,Exacta,CONABIP,1980-01-01,4230,2023
6798020,06,06798,,Biblioteca Popular,,Buenos Aires,Tapalque,Tapalqué,Bib.Pop.Mun. José Hernández,Bartolomé Mitre 178,,7303,2283.0,420284.0,biblio@tapalque.mun.gba.gov.ar,,,-36.35725,-60.023733,Exacta,CONABIP,1980-01-01,3173,2023
6805010,06,06805,,Biblioteca Popular,,Buenos Aires,Tigre,Benavídez,Bib.Pop. Ricardo Güiraldes,Eduardo Madero 3246,,1621,3327.0,481743.0,biblios@netben.com.ar,,,-34.412417,-58.698467,Exacta,CONABIP,1985-06-05,3050,2023
6805010,06,06805,,Biblioteca Popular,,Buenos Aires,Tigre,Don Torcuato,Bib.Pop. José Ingenieros,Buschiazzo 2264,,1611,11.0,47414944.0,bpjingenieros@hotmail.com,,,-34.493967,-58.634917,Exacta,CONABIP,1993-09-25,3689,2023
6805010,06,06805,,Biblioteca Popular,,Buenos Aires,Tigre,Don Torcuato,Bib. Pop. Mariano Moreno,Avda. Alvear (Ruta 202) 840,,1611,11.0,47481200.0,bibliotecammoreno@hotmail.com,,,-34.482233,-58.60895,Exacta,CONABIP,1980-01-01,4005,2023
6805010,06,06805,,Biblioteca Popular,,Buenos Aires,Tigre,Don Torcuato,Bib.Pop. y Museo del Cine Leonardo Favio,Av. Boulogne Sur Mer y Lisandro de la Torre 0,,1611,11.0,1560455567.0,,,,-34.484917,-58.62065,Exacta,CONABIP,2008-07-05,4319,2023
6805010,06,06805,,Biblioteca Popular,,Buenos Aires,Tigre,El Talar,Bib.Pop.y C.Cult. El talar,Brasil 1152,,1618,11.0,47360190.0,bibliotecaeltalar@yahoo.com.ar,,,-34.465729,-58.64595,Exacta,CONABIP,1992-05-20,3318,2023
6805010,06,06805,,Biblioteca Popular,,Buenos Aires,Tigre,General Pacheco,Bib.Pop. Juan José Castelli,Córdoba 625 0,,B1617FNK,11.0,47360140.0,,,,-34.4541,-58.634367,Exacta,CONABIP,1969-04-18,2863,2023
6805010,06,06805,,Biblioteca Popular,,Buenos Aires,Tigre,General Pacheco,Bib. Pop. Unión de Educ. de Tigre,Neuquén 183,,1617,11.0,47405630.0,,,,-34.459417,-58.64175,Exacta,CONABIP,1980-01-01,3650,2023
6805010,06,06805,,Biblioteca Popular,,Buenos Aires,Tigre,López Camelo,Bib.Pop. Lopez Camelo,PAul Groussac 3276,,1618,3327.0,45573.0,,,,-34.448925,-58.695282,Exacta,CONABIP,1999-03-03,3768,2023
6805010,06,06805,,Biblioteca Popular,,Buenos Aires,Tigre,Ricardo Rojas,Bib.Pop. Ricardo Rojas,Avellaneda 2505,,1618,11.0,47261140.0,,,,-34.459933,-58.678367,Exacta,CONABIP,1996-10-10,3475,2023
6805010,06,06805,,Biblioteca Popular,,Buenos Aires,Tigre,Tigre,Bib.Pop. D.F.Sarmiento,Av. Lib. Gral.San Martín 440,,1648,11.0,47491973.0,,,,-34.420233,-58.584583,Exacta,CONABIP,1916-09-16,957,2023
6805010,06,06805,,Biblioteca Popular,,Buenos Aires,Tigre,Tigre,Bib.Pop. Troncos del Talar,Independencia 1653,,1648,11.0,47155869.0,bibliotroncos@yahoo.com.ar,,,-34.4507,-58.603867,Exacta,CONABIP,2003-08-02,4216,2023
6805010,06,06805,,Biblioteca Popular,,Buenos Aires,Tigre,Tigre,Ctro. Cult. Com. y Bib. Pop. Caraguatá,Arroyo Caraguatá 797,,1649,11.0,1531733940.0,comunitariocaraguata@yahoo.com.ar,,,-34.422683,-58.5809,Exacta,CONABIP,2008-03-27,4292,2023
6805010,06,06805,,Biblioteca Popular,,Buenos Aires,Tigre,Tigre,Bib. Pop. Seamos Libres,Arroyo Caraguatá 790,,1648,11.0,1560106752.0,bpseamoslibres@yahoo.com,,,-34.3228211,-58.6883999,Exacta,CONABIP,2014-10-07,4352,2023
6812010,06,06812,,Biblioteca Popular,,Buenos Aires,Tordillo,General Conesa,Bib.Mun.Pop. José Manuel Estrada,José Hernández,,7101,2241.0,15694990.0,,,,-36.518288,-57.324123,Exacta,CONABIP,1980-01-01,3770,2023
6819020,06,06819,,Biblioteca Popular,,Buenos Aires,Tornquist,Saldungaray,Bib.Pop. Gral. San Martín,La Plata 0,,8166,291.0,4916015.0,bibliotecasaldungaray@gmail.com,,,-38.204867,-61.7702,Exacta,CONABIP,1980-01-01,3262,2023
6819030,06,06819,,Biblioteca Popular,,Buenos Aires,Tornquist,Sierra de la Ventana,Bib.Pop. Mariano Moreno,J.B.Alberdi 70,,B8168ASA,291.0,4915125.0,labibliomoreno@gmail.com,,,-38.1341,-61.79405,Exacta,CONABIP,1993-10-18,3296,2023
